[
    {
        "name": "1路",
        "station": "建康路·夫子庙",
        "lng": "118.792413",
        "lat": "32.023668"
    },
    {
        "name": "1路",
        "station": "长白街",
        "lat": "32.023668",
        "lng": "118.793989"
    },
    {
        "name": "1路",
        "station": "太平南路·白下路",
        "lng": "118.793989",
        "lat": "32.025291"
    },
    {
        "name": "1路",
        "station": "太平南路·常府街",
        "lat": "32.025291",
        "lng": "118.791081"
    },
    {
        "name": "1路",
        "station": "杨公井",
        "lng": "118.791081",
        "lat": "32.029479"
    },
    {
        "name": "1路",
        "station": "大行宫南",
        "lat": "32.029479",
        "lng": "118.792465"
    },
    {
        "name": "1路",
        "station": "新街口东",
        "lng": "118.792465",
        "lat": "32.03375"
    },
    {
        "name": "1路",
        "station": "新街口北",
        "lat": "32.03375",
        "lng": "118.793189"
    },
    {
        "name": "1路",
        "station": "中山路·珠江路南",
        "lng": "118.793189",
        "lat": "32.036065"
    },
    {
        "name": "1路",
        "station": "中山路·珠江路北",
        "lat": "32.036065",
        "lng": "118.794015"
    },
    {
        "name": "1路",
        "station": "鼓楼医院",
        "lng": "118.794015",
        "lat": "32.038481"
    },
    {
        "name": "1路",
        "station": "中央路·鼓楼",
        "lat": "32.038481",
        "lng": "118.790998"
    },
    {
        "name": "1路",
        "station": "玄武门地铁站南",
        "lng": "118.790998",
        "lat": "32.041311"
    },
    {
        "name": "1路",
        "station": "观音里",
        "lng": "118.784126",
        "lat": "32.041311"
    },
    {
        "name": "1路",
        "station": "玄武湖隧道",
        "lng": "118.784126",
        "lat": "32.043823"
    },
    {
        "name": "1路",
        "station": "中央门南",
        "lng": "118.784119",
        "lat": "32.043823"
    },
    {
        "name": "1路",
        "station": "中央门北(1站台)",
        "lng": "118.784119",
        "lat": "32.04818"
    },
    {
        "name": "1路",
        "station": "河路道",
        "lat": "32.04818",
        "lng": "118.784126"
    },
    {
        "name": "1路",
        "station": "干休所",
        "lng": "118.784126",
        "lat": "32.051125"
    },
    {
        "name": "1路",
        "station": "五佰村路",
        "lat": "32.051125",
        "lng": "118.784126"
    },
    {
        "name": "1路",
        "station": "五塘村",
        "lng": "118.784126",
        "lat": "32.057014"
    },
    {
        "name": "1路",
        "station": "白云新寓",
        "lat": "32.057014",
        "lng": "118.784136"
    },
    {
        "name": "1路",
        "station": "上元门地铁站",
        "lng": "118.784136",
        "lat": "32.060473"
    },
    {
        "name": "1路",
        "station": "上元门",
        "lat": "32.060473",
        "lng": "118.784141"
    },
    {
        "name": "1路",
        "station": "燕江路东",
        "lng": "118.784141",
        "lat": "32.0675"
    },
    {
        "name": "1路",
        "station": "燕江路",
        "lat": "32.0675",
        "lng": "118.784119"
    },
    {
        "name": "1路",
        "station": "金陵六村",
        "lng": "118.784119",
        "lat": "32.075035"
    },
    {
        "name": "1路",
        "station": "南堡公园",
        "lat": "32.075035",
        "lng": "118.784126"
    },
    {
        "name": "2路",
        "station": "中华门地铁站",
        "lng": "118.776523",
        "lat": "32.007109"
    },
    {
        "name": "2路",
        "station": "应天大街·雨花路",
        "lat": "32.007109",
        "lng": "118.778963"
    },
    {
        "name": "2路",
        "station": "大报恩寺遗址公园",
        "lng": "118.778963",
        "lat": "32.006332"
    },
    {
        "name": "2路",
        "station": "中华门城堡",
        "lat": "32.006332",
        "lng": "118.780998"
    },
    {
        "name": "2路",
        "station": "中华路·长乐路",
        "lng": "118.780998",
        "lat": "32.009162"
    },
    {
        "name": "2路",
        "station": "中华路·瞻园路",
        "lat": "32.009162",
        "lng": "118.782352"
    },
    {
        "name": "2路",
        "station": "中华路·三山街",
        "lng": "118.782352",
        "lat": "32.013728"
    },
    {
        "name": "2路",
        "station": "内桥南",
        "lat": "32.013728",
        "lng": "118.783134"
    },
    {
        "name": "2路",
        "station": "内桥",
        "lng": "118.783134",
        "lat": "32.017231"
    },
    {
        "name": "2路",
        "station": "羊皮巷",
        "lat": "32.017231",
        "lng": "118.784275"
    },
    {
        "name": "2路",
        "station": "新街口·正洪街",
        "lng": "118.784275",
        "lat": "32.021311"
    },
    {
        "name": "2路",
        "station": "青石街",
        "lat": "32.021311",
        "lng": "118.785122"
    },
    {
        "name": "2路",
        "station": "网巾市",
        "lng": "118.785122",
        "lat": "32.024397"
    },
    {
        "name": "2路",
        "station": "大行宫北",
        "lat": "32.024397",
        "lng": "118.785838"
    },
    {
        "name": "2路",
        "station": "四牌楼",
        "lng": "118.785838",
        "lat": "32.027179"
    },
    {
        "name": "2路",
        "station": "太平北路·鸡鸣寺",
        "lat": "32.027179",
        "lng": "118.78653"
    },
    {
        "name": "2路",
        "station": "北京东路·兰园",
        "lng": "118.78653",
        "lat": "32.030628"
    },
    {
        "name": "2路",
        "station": "北京东路·九华山",
        "lat": "32.030628",
        "lng": "118.787148"
    },
    {
        "name": "2路",
        "station": "太平门",
        "lng": "118.787148",
        "lat": "32.034897"
    },
    {
        "name": "2路",
        "station": "龙蟠路·岗子村",
        "lat": "32.034897",
        "lng": "118.787613"
    },
    {
        "name": "2路",
        "station": "锁金村",
        "lng": "118.787613",
        "lat": "32.03862"
    },
    {
        "name": "2路",
        "station": "新庄广场南",
        "lat": "32.03862",
        "lng": "118.788406"
    },
    {
        "name": "2路",
        "station": "玄武大道·长途东站",
        "lng": "118.788406",
        "lat": "32.043652"
    },
    {
        "name": "2路",
        "station": "樱铁村",
        "lat": "32.043652",
        "lng": "118.790176"
    },
    {
        "name": "2路",
        "station": "墨香路总站",
        "lng": "118.790176",
        "lat": "32.044277"
    },
    {
        "name": "3路",
        "station": "随家仓(新街口方向)",
        "lng": "118.772304",
        "lat": "32.051556"
    },
    {
        "name": "3路",
        "station": "脑科医院",
        "lat": "32.051556",
        "lng": "118.7705"
    },
    {
        "name": "3路",
        "station": "拉萨路",
        "lng": "118.7705",
        "lat": "32.050747"
    },
    {
        "name": "3路",
        "station": "永庆巷",
        "lat": "32.050747",
        "lng": "118.770226"
    },
    {
        "name": "3路",
        "station": "五台山",
        "lng": "118.770226",
        "lat": "32.048397"
    },
    {
        "name": "3路",
        "station": "大锏银巷",
        "lat": "32.048397",
        "lng": "118.773979"
    },
    {
        "name": "3路",
        "station": "新街口西",
        "lng": "118.773979",
        "lat": "32.046112"
    },
    {
        "name": "3路",
        "station": "新街口东",
        "lat": "32.046112",
        "lng": "118.776756"
    },
    {
        "name": "3路",
        "station": "南京图书馆",
        "lng": "118.776756",
        "lat": "32.045517"
    },
    {
        "name": "3路",
        "station": "大行宫北",
        "lat": "32.045517",
        "lng": "118.776672"
    },
    {
        "name": "3路",
        "station": "四牌楼",
        "lng": "118.776672",
        "lat": "32.044426"
    },
    {
        "name": "3路",
        "station": "太平北路·鸡鸣寺",
        "lat": "32.044426",
        "lng": "118.779022"
    },
    {
        "name": "3路",
        "station": "北京东路·鼓楼",
        "lng": "118.779022",
        "lat": "32.042076"
    },
    {
        "name": "3路",
        "station": "中央路·鼓楼",
        "lat": "32.042076",
        "lng": "118.787369"
    },
    {
        "name": "3路",
        "station": "湖南路",
        "lng": "118.787369",
        "lat": "32.041477"
    },
    {
        "name": "3路",
        "station": "傅佐路",
        "lat": "32.041477",
        "lng": "118.794853"
    },
    {
        "name": "3路",
        "station": "江苏路",
        "lng": "118.794853",
        "lat": "32.04203"
    },
    {
        "name": "3路",
        "station": "莫干路",
        "lat": "32.04203",
        "lng": "118.795181"
    },
    {
        "name": "3路",
        "station": "玉泉路",
        "lng": "118.795181",
        "lat": "32.044266"
    },
    {
        "name": "3路",
        "station": "西康路",
        "lat": "32.044266",
        "lng": "118.796501"
    },
    {
        "name": "3路",
        "station": "山阴路",
        "lng": "118.796501",
        "lat": "32.049923"
    },
    {
        "name": "3路",
        "station": "南阴阳营",
        "lat": "32.049923",
        "lng": "118.797714"
    },
    {
        "name": "3路",
        "station": "随家仓",
        "lng": "118.797714",
        "lat": "32.055454"
    },
    {
        "name": "4路",
        "station": "银城东苑",
        "lng": "118.846001",
        "lat": "32.023319"
    },
    {
        "name": "4路",
        "station": "东苑北",
        "lat": "32.023319",
        "lng": "118.844788"
    },
    {
        "name": "4路",
        "station": "钟山花园城",
        "lng": "118.844788",
        "lat": "32.026173"
    },
    {
        "name": "4路",
        "station": "后标营路·童卫路",
        "lat": "32.026173",
        "lng": "118.843681"
    },
    {
        "name": "4路",
        "station": "富丽山庄北",
        "lng": "118.843681",
        "lat": "32.029152"
    },
    {
        "name": "4路",
        "station": "月牙湖",
        "lat": "32.029152",
        "lng": "118.838997"
    },
    {
        "name": "4路",
        "station": "瑞金路东",
        "lng": "118.838997",
        "lat": "32.028973"
    },
    {
        "name": "4路",
        "station": "标营",
        "lat": "32.028973",
        "lng": "118.834274"
    },
    {
        "name": "4路",
        "station": "光华门",
        "lng": "118.834274",
        "lat": "32.029007"
    },
    {
        "name": "4路",
        "station": "大光路",
        "lat": "32.029007",
        "lng": "118.82592"
    },
    {
        "name": "4路",
        "station": "通济门",
        "lng": "118.82592",
        "lat": "32.031139"
    },
    {
        "name": "4路",
        "station": "建康路·大中桥",
        "lat": "32.031139",
        "lng": "118.818344"
    },
    {
        "name": "4路",
        "station": "长白街",
        "lng": "118.818344",
        "lat": "32.031651"
    },
    {
        "name": "4路",
        "station": "白下路",
        "lat": "32.031651",
        "lng": "118.816505"
    },
    {
        "name": "4路",
        "station": "中山南路·升州路",
        "lng": "118.816505",
        "lat": "32.028973"
    },
    {
        "name": "4路",
        "station": "评事街",
        "lat": "32.028973",
        "lng": "118.812286"
    },
    {
        "name": "4路",
        "station": "水西门",
        "lng": "118.812286",
        "lat": "32.023716"
    },
    {
        "name": "4路",
        "station": "莫愁路·朝天宫",
        "lat": "32.023716",
        "lng": "118.806587"
    },
    {
        "name": "4路",
        "station": "莫愁路北",
        "lng": "118.806587",
        "lat": "32.025196"
    },
    {
        "name": "4路",
        "station": "新街口西",
        "lat": "32.025196",
        "lng": "118.803146"
    },
    {
        "name": "5路",
        "station": "南湾营",
        "lng": "118.894745",
        "lat": "32.035503"
    },
    {
        "name": "5路",
        "station": "文康苑",
        "lat": "32.035503",
        "lng": "118.896149"
    },
    {
        "name": "5路",
        "station": "融康苑",
        "lng": "118.896149",
        "lat": "32.0369"
    },
    {
        "name": "5路",
        "station": "宁康苑",
        "lat": "32.0369",
        "lng": "118.900444"
    },
    {
        "name": "5路",
        "station": "百水芊城",
        "lng": "118.900444",
        "lat": "32.040028"
    },
    {
        "name": "5路",
        "station": "百水芊城北门",
        "lat": "32.040028",
        "lng": "118.904922"
    },
    {
        "name": "5路",
        "station": "马群",
        "lng": "118.904922",
        "lat": "32.042812"
    },
    {
        "name": "5路",
        "station": "钟山学院",
        "lat": "32.042812",
        "lng": "118.906731"
    },
    {
        "name": "5路",
        "station": "五棵松",
        "lng": "118.906731",
        "lat": "32.047634"
    },
    {
        "name": "5路",
        "station": "顾家营",
        "lat": "32.047634",
        "lng": "118.905434"
    },
    {
        "name": "5路",
        "station": "柳营",
        "lng": "118.905434",
        "lat": "32.050521"
    },
    {
        "name": "5路",
        "station": "钟灵街",
        "lat": "32.050521",
        "lng": "118.892785"
    },
    {
        "name": "5路",
        "station": "大栅门",
        "lng": "118.892785",
        "lat": "32.049577"
    },
    {
        "name": "5路",
        "station": "孝陵卫",
        "lat": "32.049577",
        "lng": "118.888855"
    },
    {
        "name": "5路",
        "station": "理工大",
        "lng": "118.888855",
        "lat": "32.049273"
    },
    {
        "name": "5路",
        "station": "小卫街",
        "lat": "32.049273",
        "lng": "118.88298"
    },
    {
        "name": "5路",
        "station": "卫岗",
        "lng": "118.88298",
        "lat": "32.04739"
    },
    {
        "name": "5路",
        "station": "卫桥",
        "lat": "32.04739",
        "lng": "118.876808"
    },
    {
        "name": "5路",
        "station": "中山门",
        "lng": "118.876808",
        "lat": "32.04504"
    },
    {
        "name": "5路",
        "station": "明故宫东",
        "lat": "32.04504",
        "lng": "118.874123"
    },
    {
        "name": "5路",
        "station": "明故宫西",
        "lng": "118.874123",
        "lat": "32.042652"
    },
    {
        "name": "5路",
        "station": "西安门",
        "lat": "32.042652",
        "lng": "118.870534"
    },
    {
        "name": "5路",
        "station": "中山东路·逸仙桥",
        "lng": "118.870534",
        "lat": "32.039978"
    },
    {
        "name": "5路",
        "station": "大行宫东",
        "lat": "32.039978",
        "lng": "118.86451"
    },
    {
        "name": "5路",
        "station": "新街口东",
        "lng": "118.86451",
        "lat": "32.036961"
    },
    {
        "name": "5路",
        "station": "长江路·估衣廊",
        "lat": "32.036961",
        "lng": "118.858482"
    },
    {
        "name": "6路",
        "station": "清凉山公园",
        "lng": "118.760895",
        "lat": "32.048138"
    },
    {
        "name": "6路",
        "station": "省人民医院1",
        "lat": "32.048138",
        "lng": "118.766235"
    },
    {
        "name": "6路",
        "station": "脑科医院",
        "lng": "118.766235",
        "lat": "32.047409"
    },
    {
        "name": "6路",
        "station": "随家仓",
        "lat": "32.047409",
        "lng": "118.770103"
    },
    {
        "name": "6路",
        "station": "儿童医院",
        "lng": "118.770103",
        "lat": "32.050014"
    },
    {
        "name": "6路",
        "station": "珠江路·中山路",
        "lat": "32.050014",
        "lng": "118.772629"
    },
    {
        "name": "6路",
        "station": "莲花桥",
        "lng": "118.772629",
        "lat": "32.051186"
    },
    {
        "name": "6路",
        "station": "浮桥西",
        "lat": "32.051186",
        "lng": "118.77993"
    },
    {
        "name": "6路",
        "station": "浮桥",
        "lng": "118.77993",
        "lat": "32.050041"
    },
    {
        "name": "6路",
        "station": "珠江路·小营",
        "lat": "32.050041",
        "lng": "118.785881"
    },
    {
        "name": "6路",
        "station": "马标",
        "lng": "118.785881",
        "lat": "32.050068"
    },
    {
        "name": "6路",
        "station": "后宰门",
        "lat": "32.050068",
        "lng": "118.790901"
    },
    {
        "name": "6路",
        "station": "富贵山",
        "lng": "118.790901",
        "lat": "32.049335"
    },
    {
        "name": "6路",
        "station": "板仓街·岗子村",
        "lat": "32.049335",
        "lng": "118.793297"
    },
    {
        "name": "6路",
        "station": "板仓村",
        "lng": "118.793297",
        "lat": "32.04892"
    },
    {
        "name": "6路",
        "station": "钟麓花园",
        "lat": "32.04892",
        "lng": "118.800148"
    },
    {
        "name": "6路",
        "station": "板仓街·花园路",
        "lng": "118.800148",
        "lat": "32.047676"
    },
    {
        "name": "6路",
        "station": "樱驼村",
        "lat": "32.047676",
        "lng": "118.802986"
    },
    {
        "name": "6路",
        "station": "蒋王庙",
        "lng": "118.802986",
        "lat": "32.047173"
    },
    {
        "name": "6路",
        "station": "樱花路",
        "lat": "32.047173",
        "lng": "118.808693"
    },
    {
        "name": "6路",
        "station": "樱驼花园",
        "lng": "118.808693",
        "lat": "32.04546"
    },
    {
        "name": "6路",
        "station": "经五立交",
        "lat": "32.04546",
        "lng": "118.818741"
    },
    {
        "name": "6路",
        "station": "墨香路",
        "lng": "118.818741",
        "lat": "32.04681"
    },
    {
        "name": "6路",
        "station": "小营村",
        "lat": "32.04681",
        "lng": "118.819657"
    },
    {
        "name": "6路",
        "station": "合作村",
        "lng": "118.819657",
        "lat": "32.052648"
    },
    {
        "name": "6路",
        "station": "万寿村",
        "lat": "32.052648",
        "lng": "118.817127"
    },
    {
        "name": "6路",
        "station": "墨香路北站",
        "lng": "118.817127",
        "lat": "32.066675"
    },
    {
        "name": "6路",
        "station": "大瓜园东",
        "lat": "32.066675",
        "lng": "118.821098"
    },
    {
        "name": "6路",
        "station": "大瓜园",
        "lng": "118.821098",
        "lat": "32.070009"
    },
    {
        "name": "7路",
        "station": "瑞金路",
        "lng": "118.814301",
        "lat": "32.031902"
    },
    {
        "name": "7路",
        "station": "解放南路",
        "lat": "32.031902",
        "lng": "118.810295"
    },
    {
        "name": "7路",
        "station": "大光路北",
        "lng": "118.810295",
        "lat": "32.030777"
    },
    {
        "name": "7路",
        "station": "大光路",
        "lat": "32.030777",
        "lng": "118.80999"
    },
    {
        "name": "7路",
        "station": "通济门",
        "lng": "118.80999",
        "lat": "32.026051"
    },
    {
        "name": "7路",
        "station": "白下路·大中桥",
        "lat": "32.026051",
        "lng": "118.806557"
    },
    {
        "name": "7路",
        "station": "白下路",
        "lng": "118.806557",
        "lat": "32.025204"
    },
    {
        "name": "7路",
        "station": "中山南路·升州路",
        "lat": "32.025204",
        "lng": "118.803139"
    },
    {
        "name": "7路",
        "station": "评事街",
        "lng": "118.803139",
        "lat": "32.026012"
    },
    {
        "name": "7路",
        "station": "水西门",
        "lat": "32.026012",
        "lng": "118.798802"
    },
    {
        "name": "7路",
        "station": "莫愁湖公园南门",
        "lng": "118.798802",
        "lat": "32.026775"
    },
    {
        "name": "7路",
        "station": "水西门大街·大士茶亭",
        "lat": "32.026775",
        "lng": "118.789683"
    },
    {
        "name": "7路",
        "station": "茶亭东街",
        "lng": "118.789683",
        "lat": "32.028685"
    },
    {
        "name": "7路",
        "station": "江东门纪念馆",
        "lat": "32.028685",
        "lng": "118.783342"
    },
    {
        "name": "7路",
        "station": "水西门大街·江东门",
        "lng": "118.783342",
        "lat": "32.027352"
    },
    {
        "name": "7路",
        "station": "江东万达广场",
        "lat": "32.027352",
        "lng": "118.778451"
    },
    {
        "name": "7路",
        "station": "江东中路·集庆门大街",
        "lng": "118.778451",
        "lat": "32.025312"
    },
    {
        "name": "7路",
        "station": "江东中路·应天大街",
        "lat": "32.025312",
        "lng": "118.773109"
    },
    {
        "name": "7路",
        "station": "江东中路·月安街",
        "lng": "118.773109",
        "lat": "32.028023"
    },
    {
        "name": "7路",
        "station": "江东中路·兴隆大街",
        "lat": "32.028023",
        "lng": "118.762001"
    },
    {
        "name": "7路",
        "station": "兴隆大街·燕山路",
        "lng": "118.762001",
        "lat": "32.031776"
    },
    {
        "name": "7路",
        "station": "清竹园南门",
        "lat": "32.031776",
        "lng": "118.754965"
    },
    {
        "name": "7路",
        "station": "兴隆大街·华山路",
        "lng": "118.754965",
        "lat": "32.033368"
    },
    {
        "name": "7路",
        "station": "乐山路·梦都大街",
        "lat": "32.033368",
        "lng": "118.74951"
    },
    {
        "name": "7路",
        "station": "金陵图书馆",
        "lng": "118.74951",
        "lat": "32.034683"
    },
    {
        "name": "7路",
        "station": "奥体中心西门",
        "lat": "32.034683",
        "lng": "118.745033"
    },
    {
        "name": "7路",
        "station": "乐山路·富春江西街",
        "lng": "118.745033",
        "lat": "32.034832"
    },
    {
        "name": "7路",
        "station": "乐山路·楠溪江西街",
        "lat": "32.034832",
        "lng": "118.740382"
    },
    {
        "name": "7路",
        "station": "乐山路·河西大街",
        "lng": "118.740382",
        "lat": "32.034475"
    },
    {
        "name": "7路",
        "station": "乐山路·白龙江西街",
        "lat": "32.034475",
        "lng": "118.73849"
    },
    {
        "name": "7路",
        "station": "乐山路·仁恒江湾城",
        "lng": "118.73849",
        "lat": "32.032643"
    },
    {
        "name": "7路",
        "station": "乐山路·金沙江西街",
        "lat": "32.032643",
        "lng": "118.739067"
    },
    {
        "name": "7路",
        "station": "青年文化中心东门",
        "lng": "118.739067",
        "lat": "32.02658"
    },
    {
        "name": "7路",
        "station": "国际青年文化中心",
        "lat": "32.02658",
        "lng": "118.738586"
    },
    {
        "name": "7路",
        "station": "宜悦街",
        "lng": "118.738586",
        "lat": "32.023438"
    },
    {
        "name": "8路",
        "station": "燕子矶公园",
        "lng": "118.817817",
        "lat": "32.145677"
    },
    {
        "name": "8路",
        "station": "门坡",
        "lat": "32.145677",
        "lng": "118.819227"
    },
    {
        "name": "8路",
        "station": "太平村",
        "lng": "118.819227",
        "lat": "32.141398"
    },
    {
        "name": "8路",
        "station": "胜利村",
        "lat": "32.141398",
        "lng": "118.82224"
    },
    {
        "name": "8路",
        "station": "城市绿洲",
        "lng": "118.82224",
        "lat": "32.134076"
    },
    {
        "name": "8路",
        "station": "晓庄广场",
        "lat": "32.134076",
        "lng": "118.82214"
    },
    {
        "name": "8路",
        "station": "晓庄",
        "lng": "118.82214",
        "lat": "32.129748"
    },
    {
        "name": "8路",
        "station": "南砖新村",
        "lat": "32.129748",
        "lng": "118.819766"
    },
    {
        "name": "8路",
        "station": "和燕路·迈皋桥",
        "lng": "118.819766",
        "lat": "32.12273"
    },
    {
        "name": "8路",
        "station": "东井村",
        "lat": "32.12273",
        "lng": "118.818342"
    },
    {
        "name": "8路",
        "station": "红山站",
        "lng": "118.818342",
        "lat": "32.118941"
    },
    {
        "name": "8路",
        "station": "东井亭",
        "lat": "32.118941",
        "lng": "118.815516"
    },
    {
        "name": "8路",
        "station": "安怀村东",
        "lng": "118.815516",
        "lat": "32.113624"
    },
    {
        "name": "8路",
        "station": "安怀村",
        "lat": "32.113624",
        "lng": "118.812878"
    },
    {
        "name": "8路",
        "station": "中央门北(2站台)",
        "lng": "118.812878",
        "lat": "32.110747"
    },
    {
        "name": "8路",
        "station": "中央门南",
        "lat": "32.110747",
        "lng": "118.807283"
    },
    {
        "name": "8路",
        "station": "许府巷",
        "lng": "118.807283",
        "lat": "32.102383"
    },
    {
        "name": "8路",
        "station": "玄武湖隧道",
        "lat": "32.102383",
        "lng": "118.805229"
    },
    {
        "name": "8路",
        "station": "玄武湖公园",
        "lng": "118.805229",
        "lat": "32.100395"
    },
    {
        "name": "8路",
        "station": "湖南路",
        "lat": "32.100395",
        "lng": "118.801098"
    },
    {
        "name": "8路",
        "station": "傅佐路",
        "lng": "118.801098",
        "lat": "32.097023"
    },
    {
        "name": "9路",
        "station": "总统府",
        "lng": "118.796265",
        "lat": "32.042763"
    },
    {
        "name": "9路",
        "station": "大行宫东",
        "lat": "32.042763",
        "lng": "118.797096"
    },
    {
        "name": "9路",
        "station": "新街口东",
        "lng": "118.797096",
        "lat": "32.040897"
    },
    {
        "name": "9路",
        "station": "新街口西",
        "lat": "32.040897",
        "lng": "118.790657"
    },
    {
        "name": "9路",
        "station": "汉中路·莫愁路",
        "lng": "118.790657",
        "lat": "32.041332"
    },
    {
        "name": "9路",
        "station": "汉中路·汉中门",
        "lat": "32.041332",
        "lng": "118.779678"
    },
    {
        "name": "9路",
        "station": "汉中门大街东",
        "lng": "118.779678",
        "lat": "32.042088"
    },
    {
        "name": "9路",
        "station": "莫愁新寓",
        "lat": "32.042088",
        "lng": "118.774513"
    },
    {
        "name": "9路",
        "station": "汉中门大街·嫩江路",
        "lng": "118.774513",
        "lat": "32.042473"
    },
    {
        "name": "9路",
        "station": "康怡花园",
        "lat": "32.042473",
        "lng": "118.767609"
    },
    {
        "name": "9路",
        "station": "裕华名居",
        "lng": "118.767609",
        "lat": "32.042908"
    },
    {
        "name": "9路",
        "station": "江东北路·汉中门大街",
        "lat": "32.042908",
        "lng": "118.761032"
    },
    {
        "name": "9路",
        "station": "江东北路·东宝路",
        "lng": "118.761032",
        "lat": "32.039635"
    },
    {
        "name": "9路",
        "station": "江东北路·清凉门大街",
        "lat": "32.039635",
        "lng": "118.756927"
    },
    {
        "name": "9路",
        "station": "漓江路",
        "lng": "118.756927",
        "lat": "32.03754"
    },
    {
        "name": "9路",
        "station": "银城街",
        "lat": "32.03754",
        "lng": "118.750229"
    },
    {
        "name": "9路",
        "station": "中保村南",
        "lng": "118.750229",
        "lat": "32.03867"
    },
    {
        "name": "9路",
        "station": "宁工新寓",
        "lat": "32.03867",
        "lng": "118.74559"
    },
    {
        "name": "10路",
        "station": "南京西站",
        "lng": "118.742439",
        "lat": "32.094405"
    },
    {
        "name": "10路",
        "station": "惠民桥",
        "lat": "32.094405",
        "lng": "118.740608"
    },
    {
        "name": "10路",
        "station": "静海寺纪念馆",
        "lng": "118.740608",
        "lat": "32.092882"
    },
    {
        "name": "10路",
        "station": "兴中门",
        "lat": "32.092882",
        "lng": "118.744514"
    },
    {
        "name": "10路",
        "station": "大桥饭店",
        "lng": "118.744514",
        "lat": "32.09135"
    },
    {
        "name": "10路",
        "station": "长江大酒店",
        "lat": "32.09135",
        "lng": "118.749886"
    },
    {
        "name": "10路",
        "station": "金海市场",
        "lng": "118.749886",
        "lat": "32.091789"
    },
    {
        "name": "10路",
        "station": "民生街",
        "lat": "32.091789",
        "lng": "118.752457"
    },
    {
        "name": "10路",
        "station": "城河村",
        "lng": "118.752457",
        "lat": "32.092579"
    },
    {
        "name": "10路",
        "station": "金桥市场",
        "lat": "32.092579",
        "lng": "118.756889"
    },
    {
        "name": "10路",
        "station": "中央门东",
        "lng": "118.756889",
        "lat": "32.093727"
    },
    {
        "name": "10路",
        "station": "龙蟠路·南京站西",
        "lat": "32.093727",
        "lng": "118.762428"
    },
    {
        "name": "10路",
        "station": "龙蟠路·南京站东",
        "lng": "118.762428",
        "lat": "32.093975"
    },
    {
        "name": "10路",
        "station": "新庄广场西",
        "lat": "32.093975",
        "lng": "118.76609"
    },
    {
        "name": "10路",
        "station": "新庄广场南",
        "lng": "118.76609",
        "lat": "32.093616"
    },
    {
        "name": "10路",
        "station": "锁金村",
        "lat": "32.093616",
        "lng": "118.773361"
    },
    {
        "name": "10路",
        "station": "板仓街·岗子村",
        "lng": "118.773361",
        "lat": "32.091713"
    },
    {
        "name": "10路",
        "station": "板仓村",
        "lat": "32.091713",
        "lng": "118.778129"
    },
    {
        "name": "10路",
        "station": "钟麓花园",
        "lng": "118.778129",
        "lat": "32.090556"
    },
    {
        "name": "10路",
        "station": "花园路南",
        "lat": "32.090556",
        "lng": "118.787899"
    },
    {
        "name": "10路",
        "station": "花园路·南林东路",
        "lng": "118.787899",
        "lat": "32.09"
    },
    {
        "name": "10路",
        "station": "玄武大道·长途东站",
        "lat": "32.09",
        "lng": "118.791823"
    },
    {
        "name": "10路",
        "station": "樱铁村",
        "lng": "118.791823",
        "lat": "32.087812"
    },
    {
        "name": "10路",
        "station": "墨香路总站",
        "lat": "32.087812",
        "lng": "118.800091"
    },
    {
        "name": "11路",
        "station": "龙江新城市广场",
        "lng": "118.742447",
        "lat": "32.056637"
    },
    {
        "name": "11路",
        "station": "龙江小区",
        "lat": "32.056637",
        "lng": "118.744881"
    },
    {
        "name": "11路",
        "station": "草场门大桥东",
        "lng": "118.744881",
        "lat": "32.058292"
    },
    {
        "name": "11路",
        "station": "北京西路·草场门",
        "lat": "32.058292",
        "lng": "118.753802"
    },
    {
        "name": "11路",
        "station": "江苏省委",
        "lng": "118.753802",
        "lat": "32.05957"
    },
    {
        "name": "11路",
        "station": "玉泉路",
        "lat": "32.05957",
        "lng": "118.758242"
    },
    {
        "name": "11路",
        "station": "北京西路·云南路",
        "lng": "118.758242",
        "lat": "32.060877"
    },
    {
        "name": "11路",
        "station": "鼓楼公园",
        "lat": "32.060877",
        "lng": "118.761429"
    },
    {
        "name": "11路",
        "station": "北京东路·进香河路",
        "lng": "118.761429",
        "lat": "32.060783"
    },
    {
        "name": "11路",
        "station": "北京东路·兰园",
        "lat": "32.060783",
        "lng": "118.766006"
    },
    {
        "name": "11路",
        "station": "北京东路·九华山",
        "lng": "118.766006",
        "lat": "32.060093"
    },
    {
        "name": "11路",
        "station": "太平门",
        "lat": "32.060093",
        "lng": "118.772781"
    },
    {
        "name": "11路",
        "station": "板仓街·岗子村",
        "lng": "118.772781",
        "lat": "32.059231"
    },
    {
        "name": "11路",
        "station": "板仓村",
        "lat": "32.059231",
        "lng": "118.781441"
    },
    {
        "name": "11路",
        "station": "钟麓花园",
        "lng": "118.781441",
        "lat": "32.058552"
    },
    {
        "name": "11路",
        "station": "板仓街·花园路",
        "lat": "32.058552",
        "lng": "118.789963"
    },
    {
        "name": "11路",
        "station": "樱驼村",
        "lng": "118.789963",
        "lat": "32.058029"
    },
    {
        "name": "11路",
        "station": "蒋王庙",
        "lat": "32.058029",
        "lng": "118.799667"
    },
    {
        "name": "11路",
        "station": "樱花路",
        "lng": "118.799667",
        "lat": "32.057449"
    },
    {
        "name": "11路",
        "station": "樱驼花园",
        "lat": "32.057449",
        "lng": "118.804771"
    },
    {
        "name": "11路",
        "station": "经五立交",
        "lng": "118.804771",
        "lat": "32.057419"
    },
    {
        "name": "11路",
        "station": "墨香路",
        "lat": "32.057419",
        "lng": "118.81279"
    },
    {
        "name": "11路",
        "station": "小营村",
        "lng": "118.81279",
        "lat": "32.057106"
    },
    {
        "name": "11路",
        "station": "合作村",
        "lat": "32.057106",
        "lng": "118.818161"
    },
    {
        "name": "11路",
        "station": "万寿村",
        "lng": "118.818161",
        "lat": "32.067543"
    },
    {
        "name": "11路",
        "station": "墨香路北站",
        "lat": "32.067543",
        "lng": "118.821106"
    },
    {
        "name": "11路",
        "station": "经五路北",
        "lng": "118.821106",
        "lat": "32.070007"
    },
    {
        "name": "11路",
        "station": "神农路桥",
        "lat": "32.070007",
        "lng": "118.824715"
    },
    {
        "name": "11路",
        "station": "神农路·燕城大道",
        "lng": "118.824715",
        "lat": "32.072933"
    },
    {
        "name": "11路",
        "station": "燕江新城总站",
        "lat": "32.072933",
        "lng": "118.829292"
    },
    {
        "name": "12路",
        "station": "唐山路总站",
        "lng": "118.735016",
        "lat": "32.07893"
    },
    {
        "name": "12路",
        "station": "白云亭西",
        "lat": "32.07893",
        "lng": "118.737808"
    },
    {
        "name": "12路",
        "station": "白云亭",
        "lng": "118.737808",
        "lat": "32.078053"
    },
    {
        "name": "12路",
        "station": "南医大二附院",
        "lat": "32.078053",
        "lng": "118.739594"
    },
    {
        "name": "12路",
        "station": "热河南路",
        "lng": "118.739594",
        "lat": "32.077343"
    },
    {
        "name": "12路",
        "station": "热河路",
        "lat": "32.077343",
        "lng": "118.741585"
    },
    {
        "name": "12路",
        "station": "静海寺纪念馆",
        "lng": "118.741585",
        "lat": "32.080643"
    },
    {
        "name": "12路",
        "station": "兴中门",
        "lat": "32.080643",
        "lng": "118.742096"
    },
    {
        "name": "12路",
        "station": "大桥饭店",
        "lng": "118.742096",
        "lat": "32.084475"
    },
    {
        "name": "12路",
        "station": "方家营路·水关桥",
        "lat": "32.084475",
        "lng": "118.742465"
    },
    {
        "name": "12路",
        "station": "方家营",
        "lng": "118.742465",
        "lat": "32.087982"
    },
    {
        "name": "12路",
        "station": "南堡公园西",
        "lat": "32.087982",
        "lng": "118.744446"
    },
    {
        "name": "12路",
        "station": "金陵六村",
        "lng": "118.744446",
        "lat": "32.091354"
    },
    {
        "name": "12路",
        "station": "燕江路",
        "lat": "32.091354",
        "lng": "118.749893"
    },
    {
        "name": "12路",
        "station": "燕江路东",
        "lng": "118.749893",
        "lat": "32.091789"
    },
    {
        "name": "12路",
        "station": "上元门",
        "lat": "32.091789",
        "lng": "118.753197"
    },
    {
        "name": "12路",
        "station": "上元门地铁站",
        "lng": "118.753197",
        "lat": "32.093914"
    },
    {
        "name": "12路",
        "station": "白云新寓",
        "lat": "32.093914",
        "lng": "118.753067"
    },
    {
        "name": "12路",
        "station": "五塘村东",
        "lng": "118.753067",
        "lat": "32.100883"
    },
    {
        "name": "12路",
        "station": "旭日景城",
        "lat": "32.100883",
        "lng": "118.749977"
    },
    {
        "name": "12路",
        "station": "旭日景城总站",
        "lng": "118.749977",
        "lat": "32.102356"
    },
    {
        "name": "13路",
        "station": "南京站·南广场西",
        "lng": "118.794291",
        "lat": "32.086784"
    },
    {
        "name": "13路",
        "station": "中央门东",
        "lat": "32.086784",
        "lng": "118.788872"
    },
    {
        "name": "13路",
        "station": "金桥市场",
        "lng": "118.788872",
        "lat": "32.089722"
    },
    {
        "name": "13路",
        "station": "钟阜路·城河村",
        "lat": "32.089722",
        "lng": "118.776772"
    },
    {
        "name": "13路",
        "station": "钟阜路(市第二医院)",
        "lng": "118.776772",
        "lat": "32.090717"
    },
    {
        "name": "13路",
        "station": "新门口",
        "lat": "32.090717",
        "lng": "118.771156"
    },
    {
        "name": "13路",
        "station": "福建路",
        "lng": "118.771156",
        "lat": "32.089699"
    },
    {
        "name": "13路",
        "station": "三牌楼大街北",
        "lat": "32.089699",
        "lng": "118.769264"
    },
    {
        "name": "13路",
        "station": "和会街",
        "lng": "118.769264",
        "lat": "32.088242"
    },
    {
        "name": "13路",
        "station": "新模范马路·虹桥",
        "lat": "32.088242",
        "lng": "118.766866"
    },
    {
        "name": "13路",
        "station": "中山北路·虹桥",
        "lng": "118.766866",
        "lat": "32.086341"
    },
    {
        "name": "13路",
        "station": "山西路",
        "lat": "32.086341",
        "lng": "118.763646"
    },
    {
        "name": "13路",
        "station": "云南路·大方巷",
        "lng": "118.763646",
        "lat": "32.083659"
    },
    {
        "name": "13路",
        "station": "上海路·北京西路",
        "lat": "32.083659",
        "lng": "118.763008"
    },
    {
        "name": "13路",
        "station": "五台山北",
        "lng": "118.763008",
        "lat": "32.081089"
    },
    {
        "name": "13路",
        "station": "五台山",
        "lat": "32.081089",
        "lng": "118.76622"
    },
    {
        "name": "13路",
        "station": "汉中路·莫愁路",
        "lng": "118.76622",
        "lat": "32.079208"
    },
    {
        "name": "13路",
        "station": "汉中路·汉中门",
        "lat": "32.079208",
        "lng": "118.767403"
    },
    {
        "name": "13路",
        "station": "虎踞南路·汉中门",
        "lng": "118.767403",
        "lat": "32.075386"
    },
    {
        "name": "13路",
        "station": "虎踞南路·建邺路",
        "lat": "32.075386",
        "lng": "118.767539"
    },
    {
        "name": "13路",
        "station": "虎踞南路·水西门",
        "lng": "118.767539",
        "lat": "32.073103"
    },
    {
        "name": "13路",
        "station": "凤台路·水西门",
        "lat": "32.073103",
        "lng": "118.774991"
    },
    {
        "name": "13路",
        "station": "集庆门大桥西",
        "lng": "118.774991",
        "lat": "32.066736"
    },
    {
        "name": "13路",
        "station": "南湖集贸市场",
        "lat": "32.066736",
        "lng": "118.775434"
    },
    {
        "name": "13路",
        "station": "东升村",
        "lng": "118.775434",
        "lat": "32.063047"
    },
    {
        "name": "13路",
        "station": "南湖路·沿河村",
        "lat": "32.063047",
        "lng": "118.774139"
    },
    {
        "name": "13路",
        "station": "南湖",
        "lng": "118.774139",
        "lat": "32.056679"
    },
    {
        "name": "14路",
        "station": "奥体新城",
        "lng": "118.726616",
        "lat": "32.021061"
    },
    {
        "name": "14路",
        "station": "月安街·华山路东",
        "lat": "32.021061",
        "lng": "118.729576"
    },
    {
        "name": "14路",
        "station": "燕山路·月安街",
        "lng": "118.729576",
        "lat": "32.020409"
    },
    {
        "name": "14路",
        "station": "应天大街·燕山路",
        "lat": "32.020409",
        "lng": "118.732803"
    },
    {
        "name": "14路",
        "station": "所街",
        "lng": "118.732803",
        "lat": "32.020763"
    },
    {
        "name": "14路",
        "station": "应天大街·湖西街",
        "lat": "32.020763",
        "lng": "118.734028"
    },
    {
        "name": "14路",
        "station": "应天大街·恒山路",
        "lng": "118.734028",
        "lat": "32.022509"
    },
    {
        "name": "14路",
        "station": "应天大街·黄山路",
        "lat": "32.022509",
        "lng": "118.736793"
    },
    {
        "name": "14路",
        "station": "文体路·泰山路",
        "lng": "118.736793",
        "lat": "32.021953"
    },
    {
        "name": "14路",
        "station": "南苑新村",
        "lat": "32.021953",
        "lng": "118.743806"
    },
    {
        "name": "14路",
        "station": "南湖集贸市场",
        "lng": "118.743806",
        "lat": "32.019926"
    },
    {
        "name": "14路",
        "station": "彩虹苑",
        "lat": "32.019926",
        "lng": "118.746845"
    },
    {
        "name": "14路",
        "station": "集庆门大桥西",
        "lng": "118.746845",
        "lat": "32.018576"
    },
    {
        "name": "14路",
        "station": "集庆门",
        "lat": "32.018576",
        "lng": "118.750734"
    },
    {
        "name": "14路",
        "station": "殷高巷",
        "lng": "118.750734",
        "lat": "32.016892"
    },
    {
        "name": "14路",
        "station": "市第一医院",
        "lat": "32.016892",
        "lng": "118.754809"
    },
    {
        "name": "14路",
        "station": "箍桶巷",
        "lng": "118.754809",
        "lat": "32.016207"
    },
    {
        "name": "14路",
        "station": "马道街·江宁路",
        "lat": "32.016207",
        "lng": "118.756615"
    },
    {
        "name": "14路",
        "station": "大树城",
        "lng": "118.756615",
        "lat": "32.019299"
    },
    {
        "name": "14路",
        "station": "土城头",
        "lat": "32.019299",
        "lng": "118.759842"
    },
    {
        "name": "14路",
        "station": "土城头南",
        "lng": "118.759842",
        "lat": "32.022266"
    },
    {
        "name": "14路",
        "station": "城头城",
        "lat": "32.022266",
        "lng": "118.761124"
    },
    {
        "name": "14路",
        "station": "卡子门",
        "lng": "118.761124",
        "lat": "32.020454"
    },
    {
        "name": "14路",
        "station": "卡子门大街南",
        "lat": "32.020454",
        "lng": "118.763634"
    },
    {
        "name": "14路",
        "station": "夹岗",
        "lng": "118.763634",
        "lat": "32.019466"
    },
    {
        "name": "14路",
        "station": "双龙街",
        "lat": "32.019466",
        "lng": "118.772301"
    },
    {
        "name": "14路",
        "station": "汇景北路",
        "lng": "118.772301",
        "lat": "32.018703"
    },
    {
        "name": "14路",
        "station": "汇景路",
        "lat": "32.018703",
        "lng": "118.776367"
    },
    {
        "name": "溧水15路",
        "station": "崇文路小学",
        "lng": "119.05",
        "lat": "31.630331"
    },
    {
        "name": "溧水15路",
        "station": "检察院",
        "lat": "31.630331",
        "lng": "119.047878"
    },
    {
        "name": "溧水15路",
        "station": "体育公园南",
        "lng": "119.047878",
        "lat": "31.632365"
    },
    {
        "name": "溧水15路",
        "station": "人民医院北",
        "lat": "31.632365",
        "lng": "119.038099"
    },
    {
        "name": "溧水15路",
        "station": "省溧中东站",
        "lng": "119.038099",
        "lat": "31.632335"
    },
    {
        "name": "溧水15路",
        "station": "实验幼儿园",
        "lat": "31.632335",
        "lng": "119.034271"
    },
    {
        "name": "溧水15路",
        "station": "广成花园",
        "lng": "119.034271",
        "lat": "31.632331"
    },
    {
        "name": "溧水15路",
        "station": "党校",
        "lat": "31.632331",
        "lng": "119.032409"
    },
    {
        "name": "溧水15路",
        "station": "弯子口南站",
        "lng": "119.032409",
        "lat": "31.635408"
    },
    {
        "name": "溧水15路",
        "station": "弯子口北(临时站)",
        "lat": "31.635408",
        "lng": "119.032435"
    },
    {
        "name": "溧水15路",
        "station": "永阳卫生院",
        "lng": "119.032435",
        "lat": "31.638989"
    },
    {
        "name": "溧水15路",
        "station": "青年路",
        "lat": "31.638989",
        "lng": "119.032465"
    },
    {
        "name": "溧水15路",
        "station": "金宝市场",
        "lng": "119.032465",
        "lat": "31.641345"
    },
    {
        "name": "溧水15路",
        "station": "阳光家苑",
        "lat": "31.641345",
        "lng": "119.031905"
    },
    {
        "name": "溧水15路",
        "station": "金山公寓",
        "lng": "119.031905",
        "lat": "31.644462"
    },
    {
        "name": "溧水15路",
        "station": "S7溧水站南",
        "lat": "31.644462",
        "lng": "119.031675"
    },
    {
        "name": "溧水15路",
        "station": "S7溧水站北",
        "lng": "119.031675",
        "lat": "31.646832"
    },
    {
        "name": "溧水15路",
        "station": "锦绣家园",
        "lat": "31.646832",
        "lng": "119.031645"
    },
    {
        "name": "溧水15路",
        "station": "秦淮花苑西",
        "lng": "119.031645",
        "lat": "31.650968"
    },
    {
        "name": "溧水15路",
        "station": "东城世家",
        "lat": "31.650968",
        "lng": "119.033446"
    },
    {
        "name": "溧水15路",
        "station": "东城世家北",
        "lng": "119.033446",
        "lat": "31.651801"
    },
    {
        "name": "溧水15路",
        "station": "碧水家园",
        "lat": "31.651801",
        "lng": "119.03786"
    },
    {
        "name": "溧水15路",
        "station": "塞纳名邸",
        "lng": "119.03786",
        "lat": "31.651684"
    },
    {
        "name": "溧水15路",
        "station": "旺旺食品厂",
        "lat": "31.651684",
        "lng": "119.041888"
    },
    {
        "name": "溧水15路",
        "station": "明辉公司",
        "lng": "119.041888",
        "lat": "31.651602"
    },
    {
        "name": "溧水15路",
        "station": "珍珠北路",
        "lat": "31.651602",
        "lng": "119.044987"
    },
    {
        "name": "溧水15路",
        "station": "紫枫雅苑",
        "lng": "119.044987",
        "lat": "31.652344"
    },
    {
        "name": "溧水15路",
        "station": "孔家路口",
        "lat": "31.652344",
        "lng": "119.044865"
    },
    {
        "name": "溧水15路",
        "station": "控特电机",
        "lng": "119.044865",
        "lat": "31.65671"
    },
    {
        "name": "溧水15路",
        "station": "团山站",
        "lat": "31.65671",
        "lng": "119.044592"
    },
    {
        "name": "16路",
        "station": "新和源装饰城",
        "lng": "118.755127",
        "lat": "31.999245"
    },
    {
        "name": "16路",
        "station": "赛上路",
        "lat": "31.999245",
        "lng": "118.757736"
    },
    {
        "name": "16路",
        "station": "凤台南路",
        "lng": "118.757736",
        "lat": "32.003754"
    },
    {
        "name": "16路",
        "station": "赛虹桥",
        "lat": "32.003754",
        "lng": "118.760868"
    },
    {
        "name": "16路",
        "station": "赛虹桥立交东",
        "lng": "118.760868",
        "lat": "32.007131"
    },
    {
        "name": "16路",
        "station": "中华门地铁站",
        "lat": "32.007131",
        "lng": "118.762982"
    },
    {
        "name": "16路",
        "station": "应天大街·雨花路",
        "lng": "118.762982",
        "lat": "32.009019"
    },
    {
        "name": "16路",
        "station": "大报恩寺遗址公园",
        "lat": "32.009019",
        "lng": "118.767843"
    },
    {
        "name": "16路",
        "station": "中华门城堡",
        "lng": "118.767843",
        "lat": "32.009631"
    },
    {
        "name": "16路",
        "station": "中华路·长乐路",
        "lat": "32.009631",
        "lng": "118.776302"
    },
    {
        "name": "16路",
        "station": "中山南路·新桥",
        "lng": "118.776302",
        "lat": "32.007179"
    },
    {
        "name": "16路",
        "station": "中山南路·升州路",
        "lat": "32.007179",
        "lng": "118.778971"
    },
    {
        "name": "16路",
        "station": "三元巷",
        "lng": "118.778971",
        "lat": "32.006332"
    },
    {
        "name": "16路",
        "station": "新街口南",
        "lat": "32.006332",
        "lng": "118.780981"
    },
    {
        "name": "16路",
        "station": "新街口北",
        "lng": "118.780981",
        "lat": "32.009084"
    },
    {
        "name": "16路",
        "station": "中山路·珠江路南",
        "lat": "32.009084",
        "lng": "118.782322"
    },
    {
        "name": "16路",
        "station": "中山路·珠江路北",
        "lng": "118.782322",
        "lat": "32.013798"
    },
    {
        "name": "16路",
        "station": "鼓楼医院",
        "lat": "32.013798",
        "lng": "118.783103"
    },
    {
        "name": "16路",
        "station": "中山北路·鼓楼",
        "lng": "118.783103",
        "lat": "32.017127"
    },
    {
        "name": "16路",
        "station": "中山北路·大方巷",
        "lat": "32.017127",
        "lng": "118.780742"
    },
    {
        "name": "16路",
        "station": "山西路",
        "lng": "118.780742",
        "lat": "32.02036"
    },
    {
        "name": "16路",
        "station": "中山北路·虹桥",
        "lat": "32.02036",
        "lng": "118.783225"
    },
    {
        "name": "16路",
        "station": "中山北路·三牌楼",
        "lng": "118.783225",
        "lat": "32.02678"
    },
    {
        "name": "16路",
        "station": "中山北路·萨家湾",
        "lat": "32.02678",
        "lng": "118.784136"
    },
    {
        "name": "16路",
        "station": "盐仓桥广场西",
        "lng": "118.784136",
        "lat": "32.032049"
    },
    {
        "name": "16路",
        "station": "热河路",
        "lat": "32.032049",
        "lng": "118.784149"
    },
    {
        "name": "16路",
        "station": "惠民桥",
        "lng": "118.784149",
        "lat": "32.036237"
    },
    {
        "name": "16路",
        "station": "南京西站",
        "lat": "32.036237",
        "lng": "118.784123"
    },
    {
        "name": "17路",
        "station": "紫金明珠",
        "lng": "118.862852",
        "lat": "32.019041"
    },
    {
        "name": "17路",
        "station": "南理工科技园",
        "lat": "32.019041",
        "lng": "118.863377"
    },
    {
        "name": "17路",
        "station": "清新家园",
        "lng": "118.863377",
        "lat": "32.02069"
    },
    {
        "name": "17路",
        "station": "牌楼",
        "lat": "32.02069",
        "lng": "118.860855"
    },
    {
        "name": "17路",
        "station": "海福巷东",
        "lng": "118.860855",
        "lat": "32.019622"
    },
    {
        "name": "17路",
        "station": "海福巷西",
        "lat": "32.019622",
        "lng": "118.852344"
    },
    {
        "name": "17路",
        "station": "工程兵学院",
        "lng": "118.852344",
        "lat": "32.017196"
    },
    {
        "name": "17路",
        "station": "天堂村",
        "lat": "32.017196",
        "lng": "118.84773"
    },
    {
        "name": "17路",
        "station": "石门坎",
        "lng": "118.84773",
        "lat": "32.018286"
    },
    {
        "name": "17路",
        "station": "石门坎西",
        "lat": "32.018286",
        "lng": "118.841224"
    },
    {
        "name": "17路",
        "station": "光华路西",
        "lng": "118.841224",
        "lat": "32.019371"
    },
    {
        "name": "17路",
        "station": "光华门(北)",
        "lat": "32.019371",
        "lng": "118.837552"
    },
    {
        "name": "17路",
        "station": "标营",
        "lng": "118.837552",
        "lat": "32.018893"
    },
    {
        "name": "17路",
        "station": "御道街",
        "lat": "32.018893",
        "lng": "118.834219"
    },
    {
        "name": "17路",
        "station": "明故宫南",
        "lng": "118.834219",
        "lat": "32.019184"
    },
    {
        "name": "17路",
        "station": "明故宫",
        "lat": "32.019184",
        "lng": "118.827973"
    },
    {
        "name": "17路",
        "station": "后宰门南",
        "lng": "118.827973",
        "lat": "32.01951"
    },
    {
        "name": "17路",
        "station": "后宰门",
        "lat": "32.01951",
        "lng": "118.822878"
    },
    {
        "name": "17路",
        "station": "富贵山",
        "lng": "118.822878",
        "lat": "32.019661"
    },
    {
        "name": "17路",
        "station": "龙蟠路·岗子村",
        "lat": "32.019661",
        "lng": "118.819657"
    },
    {
        "name": "17路",
        "station": "锁金村",
        "lng": "118.819657",
        "lat": "32.019779"
    },
    {
        "name": "17路",
        "station": "新庄广场南",
        "lat": "32.019779",
        "lng": "118.816181"
    },
    {
        "name": "17路",
        "station": "新庄广场西",
        "lng": "118.816181",
        "lat": "32.025056"
    },
    {
        "name": "17路",
        "station": "龙蟠路·南京站东",
        "lat": "32.025056",
        "lng": "118.816493"
    },
    {
        "name": "17路",
        "station": "南京站·南广场东",
        "lng": "118.816493",
        "lat": "32.028177"
    },
    {
        "name": "18路",
        "station": "新街口·石鼓路",
        "lng": "118.782027",
        "lat": "32.038984"
    },
    {
        "name": "18路",
        "station": "新街口西",
        "lat": "32.038984",
        "lng": "118.779683"
    },
    {
        "name": "18路",
        "station": "汉中路·莫愁路",
        "lng": "118.779683",
        "lat": "32.042088"
    },
    {
        "name": "18路",
        "station": "汉中路·汉中门",
        "lat": "32.042088",
        "lng": "118.774505"
    },
    {
        "name": "18路",
        "station": "凤凰街",
        "lng": "118.774505",
        "lat": "32.042474"
    },
    {
        "name": "18路",
        "station": "凤凰西街",
        "lat": "32.042474",
        "lng": "118.767609"
    },
    {
        "name": "18路",
        "station": "鱼苗塘",
        "lng": "118.767609",
        "lat": "32.042908"
    },
    {
        "name": "18路",
        "station": "凤凰三村",
        "lat": "32.042908",
        "lng": "118.762764"
    },
    {
        "name": "18路",
        "station": "凤凰花园城",
        "lng": "118.762764",
        "lat": "32.041992"
    },
    {
        "name": "18路",
        "station": "中心南村",
        "lat": "32.041992",
        "lng": "118.757301"
    },
    {
        "name": "18路",
        "station": "江东北路·清凉门大街",
        "lng": "118.757301",
        "lat": "32.042789"
    },
    {
        "name": "18路",
        "station": "江东北路·闽江路",
        "lat": "32.042789",
        "lng": "118.750801"
    },
    {
        "name": "18路",
        "station": "江东北路·草场门大街",
        "lng": "118.750801",
        "lat": "32.041103"
    },
    {
        "name": "18路",
        "station": "江东北路·龙园北路",
        "lat": "32.041103",
        "lng": "118.745979"
    },
    {
        "name": "18路",
        "station": "江东北路·定淮门大街",
        "lng": "118.745979",
        "lat": "32.040833"
    },
    {
        "name": "18路",
        "station": "江东北路·三汊河",
        "lat": "32.040833",
        "lng": "118.743698"
    },
    {
        "name": "18路",
        "station": "农贸中心",
        "lng": "118.743698",
        "lat": "32.042946"
    },
    {
        "name": "18路",
        "station": "南医大二附院",
        "lat": "32.042946",
        "lng": "118.74192"
    },
    {
        "name": "18路",
        "station": "热河南路",
        "lng": "118.74192",
        "lat": "32.046452"
    },
    {
        "name": "18路",
        "station": "热河路",
        "lat": "32.046452",
        "lng": "118.739594"
    },
    {
        "name": "18路",
        "station": "南京西站",
        "lng": "118.739594",
        "lat": "32.047462"
    },
    {
        "name": "18路",
        "station": "机务段",
        "lat": "32.047462",
        "lng": "118.740067"
    },
    {
        "name": "18路",
        "station": "水关桥西",
        "lng": "118.740067",
        "lat": "32.053116"
    },
    {
        "name": "18路",
        "station": "水关桥",
        "lat": "32.053116",
        "lng": "118.740021"
    },
    {
        "name": "18路",
        "station": "大庙村",
        "lng": "118.740021",
        "lat": "32.056305"
    },
    {
        "name": "18路",
        "station": "幕府南路北",
        "lat": "32.056305",
        "lng": "118.739876"
    },
    {
        "name": "18路",
        "station": "孙家洼路西",
        "lng": "118.739876",
        "lat": "32.060947"
    },
    {
        "name": "18路",
        "station": "戎军路南",
        "lat": "32.060947",
        "lng": "118.739235"
    },
    {
        "name": "18路",
        "station": "金域中央总站",
        "lng": "118.739235",
        "lat": "32.064194"
    },
    {
        "name": "19路",
        "station": "育才公寓",
        "lng": "118.730675",
        "lat": "32.046043"
    },
    {
        "name": "19路",
        "station": "东宝路总站",
        "lat": "32.046043",
        "lng": "118.731407"
    },
    {
        "name": "19路",
        "station": "金陵世纪花园",
        "lng": "118.731407",
        "lat": "32.043152"
    },
    {
        "name": "19路",
        "station": "浦江路·汉中门大街",
        "lat": "32.043152",
        "lng": "118.734375"
    },
    {
        "name": "19路",
        "station": "典雅居",
        "lng": "118.734375",
        "lat": "32.042099"
    },
    {
        "name": "19路",
        "station": "裕华名居",
        "lat": "32.042099",
        "lng": "118.734383"
    },
    {
        "name": "19路",
        "station": "康怡花园",
        "lng": "118.734383",
        "lat": "32.040897"
    },
    {
        "name": "19路",
        "station": "汉中门大街·嫩江路",
        "lat": "32.040897",
        "lng": "118.736763"
    },
    {
        "name": "19路",
        "station": "北圩路",
        "lng": "118.736763",
        "lat": "32.039501"
    },
    {
        "name": "19路",
        "station": "水西门大街·大士茶亭",
        "lat": "32.039501",
        "lng": "118.740639"
    },
    {
        "name": "19路",
        "station": "莫愁湖公园南门",
        "lng": "118.740639",
        "lat": "32.039528"
    },
    {
        "name": "19路",
        "station": "凤台路·水西门",
        "lat": "32.039528",
        "lng": "118.745781"
    },
    {
        "name": "19路",
        "station": "集庆门",
        "lng": "118.745781",
        "lat": "32.038765"
    },
    {
        "name": "19路",
        "station": "殷高巷",
        "lat": "32.038765",
        "lng": "118.751015"
    },
    {
        "name": "19路",
        "station": "钓鱼台",
        "lng": "118.751015",
        "lat": "32.038425"
    },
    {
        "name": "19路",
        "station": "窑湾街",
        "lat": "32.038425",
        "lng": "118.753143"
    },
    {
        "name": "19路",
        "station": "雨花西路",
        "lng": "118.753143",
        "lat": "32.036762"
    },
    {
        "name": "19路",
        "station": "能仁里",
        "lat": "32.036762",
        "lng": "118.753571"
    },
    {
        "name": "19路",
        "station": "雨花南路·安德门",
        "lng": "118.753571",
        "lat": "32.033577"
    },
    {
        "name": "19路",
        "station": "公交总公司驾校",
        "lat": "32.033577",
        "lng": "118.764107"
    },
    {
        "name": "19路",
        "station": "望江矶",
        "lng": "118.764107",
        "lat": "32.031197"
    },
    {
        "name": "19路",
        "station": "花神庙",
        "lat": "32.031197",
        "lng": "118.769211"
    },
    {
        "name": "19路",
        "station": "紫荆花路",
        "lng": "118.769211",
        "lat": "32.028748"
    },
    {
        "name": "19路",
        "station": "宁南小区西",
        "lat": "32.028748",
        "lng": "118.772348"
    },
    {
        "name": "19路",
        "station": "花神湖",
        "lng": "118.772348",
        "lat": "32.018698"
    },
    {
        "name": "19路",
        "station": "玉兰路",
        "lat": "32.018698",
        "lng": "118.776337"
    },
    {
        "name": "19路",
        "station": "丁墙路",
        "lng": "118.776337",
        "lat": "32.018516"
    },
    {
        "name": "19路",
        "station": "南京南站",
        "lat": "32.018516",
        "lng": "118.779808"
    },
    {
        "name": "20路",
        "station": "莫愁湖公园西门",
        "lng": "118.757416",
        "lat": "32.03616"
    },
    {
        "name": "20路",
        "station": "莫愁湖西路",
        "lat": "32.03616",
        "lng": "118.756645"
    },
    {
        "name": "20路",
        "station": "水西门大街·大士茶亭",
        "lng": "118.756645",
        "lat": "32.034298"
    },
    {
        "name": "20路",
        "station": "北圩路",
        "lat": "32.034298",
        "lng": "118.754776"
    },
    {
        "name": "20路",
        "station": "迎春里",
        "lng": "118.754776",
        "lat": "32.033405"
    },
    {
        "name": "20路",
        "station": "鱼苗塘",
        "lat": "32.033405",
        "lng": "118.752899"
    },
    {
        "name": "20路",
        "station": "嫩江路",
        "lng": "118.752899",
        "lat": "32.035912"
    },
    {
        "name": "20路",
        "station": "清凉门大桥西",
        "lat": "32.035912",
        "lng": "118.754097"
    },
    {
        "name": "20路",
        "station": "清凉山公园",
        "lng": "118.754097",
        "lat": "32.038879"
    },
    {
        "name": "20路",
        "station": "虎踞关南",
        "lat": "32.038879",
        "lng": "118.750809"
    },
    {
        "name": "20路",
        "station": "虎踞关北",
        "lng": "118.750809",
        "lat": "32.041103"
    },
    {
        "name": "20路",
        "station": "山阴路",
        "lat": "32.041103",
        "lng": "118.747681"
    },
    {
        "name": "20路",
        "station": "南阴阳营",
        "lng": "118.747681",
        "lat": "32.042496"
    },
    {
        "name": "20路",
        "station": "上海路·北京西路",
        "lat": "32.042496",
        "lng": "118.749367"
    },
    {
        "name": "20路",
        "station": "鼓楼公园",
        "lng": "118.749367",
        "lat": "32.04615"
    },
    {
        "name": "20路",
        "station": "北京东路·进香河路",
        "lat": "32.04615",
        "lng": "118.760918"
    },
    {
        "name": "20路",
        "station": "北京东路·兰园",
        "lng": "118.760918",
        "lat": "32.048141"
    },
    {
        "name": "20路",
        "station": "北京东路·九华山",
        "lat": "32.048141",
        "lng": "118.763641"
    },
    {
        "name": "20路",
        "station": "太平门",
        "lng": "118.763641",
        "lat": "32.050903"
    },
    {
        "name": "20路",
        "station": "白马公园",
        "lat": "32.050903",
        "lng": "118.763161"
    },
    {
        "name": "20路",
        "station": "紫金山索道",
        "lng": "118.763161",
        "lat": "32.052795"
    },
    {
        "name": "20路",
        "station": "琵琶湖",
        "lat": "32.052795",
        "lng": "118.765388"
    },
    {
        "name": "20路",
        "station": "中山植物园",
        "lng": "118.765388",
        "lat": "32.055008"
    },
    {
        "name": "20路",
        "station": "明孝陵",
        "lat": "32.055008",
        "lng": "118.770172"
    },
    {
        "name": "20路",
        "station": "梅花谷西门",
        "lng": "118.770172",
        "lat": "32.054848"
    },
    {
        "name": "20路",
        "station": "明孝陵停车场",
        "lat": "32.054848",
        "lng": "118.77433"
    },
    {
        "name": "20路高峰区间",
        "station": "鼓楼公园",
        "lng": "118.781113",
        "lat": "32.059155"
    },
    {
        "name": "20路高峰区间",
        "station": "北京西路·云南路",
        "lat": "32.059155",
        "lng": "118.776199"
    },
    {
        "name": "20路高峰区间",
        "station": "玉泉路",
        "lng": "118.776199",
        "lat": "32.059063"
    },
    {
        "name": "20路高峰区间",
        "station": "西康路",
        "lat": "32.059063",
        "lng": "118.768745"
    },
    {
        "name": "20路高峰区间",
        "station": "虎踞关北",
        "lng": "118.768745",
        "lat": "32.059731"
    },
    {
        "name": "20路高峰区间",
        "station": "虎踞关南",
        "lat": "32.059731",
        "lng": "118.764107"
    },
    {
        "name": "20路高峰区间",
        "station": "清凉山公园",
        "lng": "118.764107",
        "lat": "32.056427"
    },
    {
        "name": "20路高峰区间",
        "station": "清凉门大桥西",
        "lat": "32.056427",
        "lng": "118.7631"
    },
    {
        "name": "20路高峰区间",
        "station": "嫩江路",
        "lng": "118.7631",
        "lat": "32.052578"
    },
    {
        "name": "20路高峰区间",
        "station": "鱼苗塘",
        "lat": "32.052578",
        "lng": "118.763725"
    },
    {
        "name": "20路高峰区间",
        "station": "迎春里",
        "lng": "118.763725",
        "lat": "32.049877"
    },
    {
        "name": "20路高峰区间",
        "station": "莫愁新寓",
        "lat": "32.049877",
        "lng": "118.761909"
    },
    {
        "name": "20路高峰区间",
        "station": "鼓楼公园",
        "lng": "118.781113",
        "lat": "32.059155"
    },
    {
        "name": "20路高峰区间",
        "station": "北京西路·云南路",
        "lat": "32.059155",
        "lng": "118.776199"
    },
    {
        "name": "20路高峰区间",
        "station": "玉泉路",
        "lng": "118.776199",
        "lat": "32.059063"
    },
    {
        "name": "20路高峰区间",
        "station": "西康路",
        "lat": "32.059063",
        "lng": "118.768745"
    },
    {
        "name": "20路高峰区间",
        "station": "虎踞关北",
        "lng": "118.768745",
        "lat": "32.059731"
    },
    {
        "name": "20路高峰区间",
        "station": "虎踞关南",
        "lat": "32.059731",
        "lng": "118.764107"
    },
    {
        "name": "20路高峰区间",
        "station": "清凉山公园",
        "lng": "118.764107",
        "lat": "32.056427"
    },
    {
        "name": "20路高峰区间",
        "station": "清凉门大桥西",
        "lat": "32.056427",
        "lng": "118.7631"
    },
    {
        "name": "20路高峰区间",
        "station": "嫩江路",
        "lng": "118.7631",
        "lat": "32.052578"
    },
    {
        "name": "20路高峰区间",
        "station": "鱼苗塘",
        "lat": "32.052578",
        "lng": "118.763725"
    },
    {
        "name": "20路高峰区间",
        "station": "迎春里",
        "lng": "118.763725",
        "lat": "32.049877"
    },
    {
        "name": "20路高峰区间",
        "station": "莫愁新寓",
        "lat": "32.049877",
        "lng": "118.761909"
    },
    {
        "name": "21路",
        "station": "凤台南路",
        "lng": "118.760803",
        "lat": "32.007084"
    },
    {
        "name": "21路",
        "station": "赛虹桥",
        "lat": "32.007084",
        "lng": "118.763123"
    },
    {
        "name": "21路",
        "station": "银桥市场",
        "lng": "118.763123",
        "lat": "32.009144"
    },
    {
        "name": "21路",
        "station": "凤台路·集庆门",
        "lat": "32.009144",
        "lng": "118.765846"
    },
    {
        "name": "21路",
        "station": "凤台路·水西门",
        "lng": "118.765846",
        "lat": "32.012531"
    },
    {
        "name": "21路",
        "station": "虎踞南路·水西门",
        "lat": "32.012531",
        "lng": "118.767807"
    },
    {
        "name": "21路",
        "station": "虎踞南路·建邺路",
        "lng": "118.767807",
        "lat": "32.018021"
    },
    {
        "name": "21路",
        "station": "虎踞南路·汉中门",
        "lat": "32.018021",
        "lng": "118.769432"
    },
    {
        "name": "21路",
        "station": "虎踞路·汉中门",
        "lng": "118.769432",
        "lat": "32.027874"
    },
    {
        "name": "21路",
        "station": "虎踞路·清凉山",
        "lat": "32.027874",
        "lng": "118.769821"
    },
    {
        "name": "21路",
        "station": "国防园",
        "lng": "118.769821",
        "lat": "32.031502"
    },
    {
        "name": "21路",
        "station": "虎踞路·草场门",
        "lat": "32.031502",
        "lng": "118.769257"
    },
    {
        "name": "21路",
        "station": "虎踞北路·草场门",
        "lng": "118.769257",
        "lat": "32.03511"
    },
    {
        "name": "21路",
        "station": "古林公园",
        "lat": "32.03511",
        "lng": "118.766983"
    },
    {
        "name": "21路",
        "station": "古平岗",
        "lng": "118.766983",
        "lat": "32.040535"
    },
    {
        "name": "21路",
        "station": "镇江路",
        "lat": "32.040535",
        "lng": "118.765434"
    },
    {
        "name": "21路",
        "station": "丁山宾馆",
        "lng": "118.765434",
        "lat": "32.043026"
    },
    {
        "name": "21路",
        "station": "双门楼宾馆",
        "lat": "32.043026",
        "lng": "118.76062"
    },
    {
        "name": "21路",
        "station": "盐仓桥",
        "lng": "118.76062",
        "lat": "32.047314"
    },
    {
        "name": "21路",
        "station": "大桥饭店",
        "lat": "32.047314",
        "lng": "118.756927"
    },
    {
        "name": "21路",
        "station": "兴中门",
        "lng": "118.756927",
        "lat": "32.052994"
    },
    {
        "name": "21路",
        "station": "静海寺纪念馆",
        "lat": "32.052994",
        "lng": "118.756104"
    },
    {
        "name": "21路",
        "station": "南京西站",
        "lng": "118.756104",
        "lat": "32.058563"
    },
    {
        "name": "22路",
        "station": "万寿停车场",
        "lng": "118.836623",
        "lat": "32.117409"
    },
    {
        "name": "22路",
        "station": "墨香路北",
        "lat": "32.117409",
        "lng": "118.834405"
    },
    {
        "name": "22路",
        "station": "万寿村",
        "lng": "118.834405",
        "lat": "32.115707"
    },
    {
        "name": "22路",
        "station": "合作村",
        "lat": "32.115707",
        "lng": "118.834244"
    },
    {
        "name": "22路",
        "station": "小营村",
        "lng": "118.834244",
        "lat": "32.109863"
    },
    {
        "name": "22路",
        "station": "墨香路",
        "lat": "32.109863",
        "lng": "118.834152"
    },
    {
        "name": "22路",
        "station": "月苑南路",
        "lng": "118.834152",
        "lat": "32.10685"
    },
    {
        "name": "22路",
        "station": "月苑小区南",
        "lat": "32.10685",
        "lng": "118.834084"
    },
    {
        "name": "22路",
        "station": "北苑新村南",
        "lng": "118.834084",
        "lat": "32.104584"
    },
    {
        "name": "22路",
        "station": "藤子村",
        "lat": "32.104584",
        "lng": "118.833145"
    },
    {
        "name": "22路",
        "station": "青年路",
        "lng": "118.833145",
        "lat": "32.100235"
    },
    {
        "name": "22路",
        "station": "红山南路·恒嘉路",
        "lat": "32.100235",
        "lng": "118.830788"
    },
    {
        "name": "22路",
        "station": "新庄广场北",
        "lng": "118.830788",
        "lat": "32.099052"
    },
    {
        "name": "22路",
        "station": "新庄广场西",
        "lat": "32.099052",
        "lng": "118.825157"
    },
    {
        "name": "22路",
        "station": "龙蟠路·南京站东",
        "lng": "118.825157",
        "lat": "32.098854"
    },
    {
        "name": "22路",
        "station": "龙蟠路·南京站西",
        "lat": "32.098854",
        "lng": "118.819351"
    },
    {
        "name": "22路",
        "station": "中央门东",
        "lng": "118.819351",
        "lat": "32.099007"
    },
    {
        "name": "22路",
        "station": "中央门南",
        "lat": "32.099007",
        "lng": "118.818572"
    },
    {
        "name": "22路",
        "station": "许府巷",
        "lng": "118.818572",
        "lat": "32.097813"
    },
    {
        "name": "22路",
        "station": "玄武湖隧道",
        "lat": "32.097813",
        "lng": "118.817257"
    },
    {
        "name": "22路",
        "station": "玄武湖公园",
        "lng": "118.817257",
        "lat": "32.089427"
    },
    {
        "name": "22路",
        "station": "湖南路",
        "lat": "32.089427",
        "lng": "118.815437"
    },
    {
        "name": "22路",
        "station": "傅佐路",
        "lng": "118.815437",
        "lat": "32.084732"
    },
    {
        "name": "23路",
        "station": "清江南路",
        "lng": "118.727279",
        "lat": "32.032174"
    },
    {
        "name": "23路",
        "station": "鼓楼科技园",
        "lat": "32.032174",
        "lng": "118.729618"
    },
    {
        "name": "23路",
        "station": "汉中门大街·清江路",
        "lng": "118.729618",
        "lat": "32.035621"
    },
    {
        "name": "23路",
        "station": "典雅居",
        "lat": "32.035621",
        "lng": "118.731537"
    },
    {
        "name": "23路",
        "station": "江东北路·汉中门大街",
        "lng": "118.731537",
        "lat": "32.039524"
    },
    {
        "name": "23路",
        "station": "江东北路·东宝路",
        "lat": "32.039524",
        "lng": "118.736816"
    },
    {
        "name": "23路",
        "station": "中心南村",
        "lng": "118.736816",
        "lat": "32.039505"
    },
    {
        "name": "23路",
        "station": "清凉门大街·湛江路",
        "lat": "32.039505",
        "lng": "118.739093"
    },
    {
        "name": "23路",
        "station": "清凉门大桥西",
        "lng": "118.739093",
        "lat": "32.040512"
    },
    {
        "name": "23路",
        "station": "虎踞路·清凉山",
        "lat": "32.040512",
        "lng": "118.739349"
    },
    {
        "name": "23路",
        "station": "虎踞路·汉中门",
        "lng": "118.739349",
        "lat": "32.044306"
    },
    {
        "name": "23路",
        "station": "虎踞南路·汉中门",
        "lat": "32.044306",
        "lng": "118.74293"
    },
    {
        "name": "23路",
        "station": "建邺路·止马营",
        "lng": "118.74293",
        "lat": "32.046363"
    },
    {
        "name": "23路",
        "station": "水西门",
        "lat": "32.046363",
        "lng": "118.745768"
    },
    {
        "name": "23路",
        "station": "评事街",
        "lng": "118.745768",
        "lat": "32.046289"
    },
    {
        "name": "23路",
        "station": "中山南路·新桥",
        "lat": "32.046289",
        "lng": "118.749336"
    },
    {
        "name": "23路",
        "station": "武定桥",
        "lng": "118.749336",
        "lat": "32.04615"
    },
    {
        "name": "23路",
        "station": "琵琶巷",
        "lat": "32.04615",
        "lng": "118.760525"
    },
    {
        "name": "23路",
        "station": "武定门",
        "lng": "118.760525",
        "lat": "32.047157"
    },
    {
        "name": "23路",
        "station": "节制闸路西",
        "lat": "32.047157",
        "lng": "118.76444"
    },
    {
        "name": "23路",
        "station": "节制闸",
        "lng": "118.76444",
        "lat": "32.043772"
    },
    {
        "name": "23路",
        "station": "节制闸南",
        "lat": "32.043772",
        "lng": "118.766033"
    },
    {
        "name": "23路",
        "station": "红花村",
        "lng": "118.766033",
        "lat": "32.041675"
    },
    {
        "name": "24路",
        "station": "金科院幕府校区",
        "lng": "118.814003",
        "lat": "32.119202"
    },
    {
        "name": "24路",
        "station": "晓庄村",
        "lat": "32.119202",
        "lng": "118.816109"
    },
    {
        "name": "24路",
        "station": "晓庄村(行知路)",
        "lng": "118.816109",
        "lat": "32.117622"
    },
    {
        "name": "24路",
        "station": "晓庄",
        "lat": "32.117622",
        "lng": "118.816544"
    },
    {
        "name": "24路",
        "station": "南砖新村",
        "lng": "118.816544",
        "lat": "32.117512"
    },
    {
        "name": "24路",
        "station": "省中西医结合医院",
        "lat": "32.117512",
        "lng": "118.815469"
    },
    {
        "name": "24路",
        "station": "十字街",
        "lng": "118.815469",
        "lat": "32.113555"
    },
    {
        "name": "24路",
        "station": "红山森林动物园",
        "lat": "32.113555",
        "lng": "118.812682"
    },
    {
        "name": "24路",
        "station": "江南公交一公司",
        "lng": "118.812682",
        "lat": "32.110543"
    },
    {
        "name": "24路",
        "station": "曹后村",
        "lat": "32.110543",
        "lng": "118.809362"
    },
    {
        "name": "24路",
        "station": "新庄广场北",
        "lng": "118.809362",
        "lat": "32.099336"
    },
    {
        "name": "24路",
        "station": "新庄广场南",
        "lat": "32.099336",
        "lng": "118.808963"
    },
    {
        "name": "24路",
        "station": "锁金村",
        "lng": "118.808963",
        "lat": "32.095417"
    },
    {
        "name": "24路",
        "station": "龙蟠路·岗子村",
        "lat": "32.095417",
        "lng": "118.809102"
    },
    {
        "name": "24路",
        "station": "太平门",
        "lng": "118.809102",
        "lat": "32.093021"
    },
    {
        "name": "24路",
        "station": "北京东路·九华山",
        "lat": "32.093021",
        "lng": "118.809266"
    },
    {
        "name": "24路",
        "station": "兰园",
        "lng": "118.809266",
        "lat": "32.089592"
    },
    {
        "name": "25路",
        "station": "南理工科技园",
        "lng": "118.863377",
        "lat": "32.02069"
    },
    {
        "name": "25路",
        "station": "清新家园",
        "lat": "32.02069",
        "lng": "118.861033"
    },
    {
        "name": "25路",
        "station": "牌楼",
        "lng": "118.861033",
        "lat": "32.019705"
    },
    {
        "name": "25路",
        "station": "海福巷东",
        "lat": "32.019705",
        "lng": "118.852326"
    },
    {
        "name": "25路",
        "station": "海福巷西",
        "lng": "118.852326",
        "lat": "32.017196"
    },
    {
        "name": "25路",
        "station": "工程兵学院",
        "lat": "32.017196",
        "lng": "118.847817"
    },
    {
        "name": "25路",
        "station": "天堂村",
        "lng": "118.847817",
        "lat": "32.018251"
    },
    {
        "name": "25路",
        "station": "苜蓿园大街南",
        "lat": "32.018251",
        "lng": "118.841797"
    },
    {
        "name": "25路",
        "station": "紫金路",
        "lng": "118.841797",
        "lat": "32.019371"
    },
    {
        "name": "25路",
        "station": "蓝旗街东",
        "lat": "32.019371",
        "lng": "118.837713"
    },
    {
        "name": "25路",
        "station": "蓝旗街",
        "lng": "118.837713",
        "lat": "32.01888"
    },
    {
        "name": "25路",
        "station": "标营",
        "lat": "32.01888",
        "lng": "118.834223"
    },
    {
        "name": "25路",
        "station": "瑞金路",
        "lng": "118.834223",
        "lat": "32.019184"
    },
    {
        "name": "25路",
        "station": "瑞金北村",
        "lat": "32.019184",
        "lng": "118.830629"
    },
    {
        "name": "25路",
        "station": "西安门",
        "lng": "118.830629",
        "lat": "32.021727"
    },
    {
        "name": "25路",
        "station": "中山东路·逸仙桥",
        "lat": "32.021727",
        "lng": "118.828644"
    },
    {
        "name": "25路",
        "station": "大行宫东",
        "lng": "118.828644",
        "lat": "32.024357"
    },
    {
        "name": "25路",
        "station": "新街口东",
        "lat": "32.024357",
        "lng": "118.823036"
    },
    {
        "name": "25路",
        "station": "新街口北",
        "lng": "118.823036",
        "lat": "32.025925"
    },
    {
        "name": "25路",
        "station": "中山路·珠江路南",
        "lat": "32.025925",
        "lng": "118.818329"
    },
    {
        "name": "25路",
        "station": "鼓楼医院",
        "lng": "118.818329",
        "lat": "32.026131"
    },
    {
        "name": "25路",
        "station": "市口腔医院",
        "lat": "32.026131",
        "lng": "118.81649"
    },
    {
        "name": "25路",
        "station": "玄武门地铁站南",
        "lng": "118.81649",
        "lat": "32.028137"
    },
    {
        "name": "25路",
        "station": "观音里",
        "lat": "32.028137",
        "lng": "118.814568"
    },
    {
        "name": "25路",
        "station": "玄武湖隧道",
        "lng": "118.814568",
        "lat": "32.031895"
    },
    {
        "name": "25路",
        "station": "中央门南",
        "lat": "32.031895",
        "lng": "118.810394"
    },
    {
        "name": "25路",
        "station": "中央门北(1站台)",
        "lng": "118.810394",
        "lat": "32.035343"
    },
    {
        "name": "25路",
        "station": "河路道",
        "lat": "32.035343",
        "lng": "118.807877"
    },
    {
        "name": "25路",
        "station": "北崮山西",
        "lng": "118.807877",
        "lat": "32.040119"
    },
    {
        "name": "25路",
        "station": "北崮山",
        "lat": "32.040119",
        "lng": "118.801598"
    },
    {
        "name": "26路",
        "station": "鼓楼公交总站",
        "lng": "118.781425",
        "lat": "32.05888"
    },
    {
        "name": "26路",
        "station": "北京东路·进香河路",
        "lat": "32.05888",
        "lng": "118.789963"
    },
    {
        "name": "26路",
        "station": "进香河",
        "lng": "118.789963",
        "lat": "32.058029"
    },
    {
        "name": "26路",
        "station": "红庙",
        "lat": "32.058029",
        "lng": "118.790451"
    },
    {
        "name": "26路",
        "station": "相府营",
        "lng": "118.790451",
        "lat": "32.053501"
    },
    {
        "name": "26路",
        "station": "青石街",
        "lat": "32.053501",
        "lng": "118.789253"
    },
    {
        "name": "26路",
        "station": "羊皮巷",
        "lng": "118.789253",
        "lat": "32.048759"
    },
    {
        "name": "26路",
        "station": "内桥",
        "lat": "32.048759",
        "lng": "118.788879"
    },
    {
        "name": "26路",
        "station": "内桥南",
        "lng": "118.788879",
        "lat": "32.046612"
    },
    {
        "name": "26路",
        "station": "中华路·三山街",
        "lat": "32.046612",
        "lng": "118.788223"
    },
    {
        "name": "26路",
        "station": "市第一医院",
        "lng": "118.788223",
        "lat": "32.043186"
    },
    {
        "name": "26路",
        "station": "琵琶巷",
        "lat": "32.043186",
        "lng": "118.787102"
    },
    {
        "name": "26路",
        "station": "武定门",
        "lng": "118.787102",
        "lat": "32.03537"
    },
    {
        "name": "26路",
        "station": "秦虹桥",
        "lat": "32.03537",
        "lng": "118.786659"
    },
    {
        "name": "26路",
        "station": "路子铺",
        "lng": "118.786659",
        "lat": "32.032017"
    },
    {
        "name": "26路",
        "station": "城头城",
        "lat": "32.032017",
        "lng": "118.785789"
    },
    {
        "name": "26路",
        "station": "卡子门西",
        "lng": "118.785789",
        "lat": "32.027348"
    },
    {
        "name": "26路",
        "station": "养回红村",
        "lat": "32.027348",
        "lng": "118.785309"
    },
    {
        "name": "26路",
        "station": "雨花台东大门",
        "lng": "118.785309",
        "lat": "32.025421"
    },
    {
        "name": "26路",
        "station": "雨花路立交桥",
        "lat": "32.025421",
        "lng": "118.785172"
    },
    {
        "name": "26路",
        "station": "雨花台北大门",
        "lng": "118.785172",
        "lat": "32.017899"
    },
    {
        "name": "26路",
        "station": "共青团路·普德村",
        "lat": "32.017899",
        "lng": "118.79039"
    },
    {
        "name": "26路",
        "station": "雨花新村",
        "lng": "118.79039",
        "lat": "32.015999"
    },
    {
        "name": "26路",
        "station": "公交总公司驾校",
        "lat": "32.015999",
        "lng": "118.794487"
    },
    {
        "name": "26路",
        "station": "雨花南路·安德门",
        "lng": "118.794487",
        "lat": "32.014515"
    },
    {
        "name": "26路",
        "station": "安德门",
        "lat": "32.014515",
        "lng": "118.796845"
    },
    {
        "name": "26路",
        "station": "菊花台",
        "lng": "118.796845",
        "lat": "32.010807"
    },
    {
        "name": "26路",
        "station": "时光澔韵",
        "lat": "32.010807",
        "lng": "118.796128"
    },
    {
        "name": "26路",
        "station": "小行",
        "lng": "118.796128",
        "lat": "32.002001"
    },
    {
        "name": "26路",
        "station": "小行里",
        "lat": "32.002001",
        "lng": "118.795868"
    },
    {
        "name": "26路",
        "station": "小行小区",
        "lng": "118.795868",
        "lat": "31.993925"
    },
    {
        "name": "27路",
        "station": "南京南站",
        "lng": "118.796015",
        "lat": "31.967667"
    },
    {
        "name": "27路",
        "station": "绿都大道",
        "lat": "31.967667",
        "lng": "118.796675"
    },
    {
        "name": "27路",
        "station": "宏运大道·金源路",
        "lng": "118.796675",
        "lat": "31.96122"
    },
    {
        "name": "27路",
        "station": "宏运大道·金兰路",
        "lat": "31.96122",
        "lng": "118.799123"
    },
    {
        "name": "27路",
        "station": "宏运大道·民生路",
        "lng": "118.799123",
        "lat": "31.959431"
    },
    {
        "name": "27路",
        "station": "岔路口西",
        "lat": "31.959431",
        "lng": "118.801964"
    },
    {
        "name": "27路",
        "station": "江宁装饰城",
        "lng": "118.801964",
        "lat": "31.959805"
    },
    {
        "name": "27路",
        "station": "气象学院",
        "lat": "31.959805",
        "lng": "118.809433"
    },
    {
        "name": "27路",
        "station": "双龙街",
        "lng": "118.809433",
        "lat": "31.962217"
    },
    {
        "name": "27路",
        "station": "夹岗",
        "lat": "31.962217",
        "lng": "118.8144"
    },
    {
        "name": "27路",
        "station": "窨子山",
        "lng": "118.8144",
        "lat": "31.964632"
    },
    {
        "name": "27路",
        "station": "春天家园",
        "lat": "31.964632",
        "lng": "118.815651"
    },
    {
        "name": "27路",
        "station": "南京市中医院",
        "lng": "118.815651",
        "lat": "31.967049"
    },
    {
        "name": "27路",
        "station": "后江沿",
        "lat": "31.967049",
        "lng": "118.812843"
    },
    {
        "name": "27路",
        "station": "光卡路",
        "lng": "118.812843",
        "lat": "31.970495"
    },
    {
        "name": "27路",
        "station": "马家圩",
        "lat": "31.970495",
        "lng": "118.802665"
    },
    {
        "name": "27路",
        "station": "中和桥",
        "lng": "118.802665",
        "lat": "31.981723"
    },
    {
        "name": "27路",
        "station": "光华门",
        "lat": "31.981723",
        "lng": "118.800768"
    },
    {
        "name": "27路",
        "station": "大光路北",
        "lng": "118.800768",
        "lat": "31.984727"
    },
    {
        "name": "27路",
        "station": "解放南路",
        "lat": "31.984727",
        "lng": "118.800864"
    },
    {
        "name": "27路",
        "station": "公园路",
        "lng": "118.800864",
        "lat": "31.98635"
    },
    {
        "name": "27路",
        "station": "常府街",
        "lat": "31.98635",
        "lng": "118.803841"
    },
    {
        "name": "27路",
        "station": "八一医院",
        "lng": "118.803841",
        "lat": "31.990541"
    },
    {
        "name": "27路",
        "station": "户部街",
        "lat": "31.990541",
        "lng": "118.806259"
    },
    {
        "name": "27路",
        "station": "新街口·正洪街",
        "lng": "118.806259",
        "lat": "31.995583"
    },
    {
        "name": "27路",
        "station": "长江路·估衣廊",
        "lat": "31.995583",
        "lng": "118.808884"
    },
    {
        "name": "27路",
        "station": "新街口南",
        "lng": "118.808884",
        "lat": "32.000343"
    },
    {
        "name": "28路",
        "station": "集庆门大街·湖西街",
        "lng": "118.751551",
        "lat": "32.026036"
    },
    {
        "name": "28路",
        "station": "东升村",
        "lat": "32.026036",
        "lng": "118.756348"
    },
    {
        "name": "28路",
        "station": "南湖集贸市场",
        "lng": "118.756348",
        "lat": "32.02388"
    },
    {
        "name": "28路",
        "station": "彩虹苑",
        "lat": "32.02388",
        "lng": "118.759796"
    },
    {
        "name": "28路",
        "station": "集庆门大桥西",
        "lng": "118.759796",
        "lat": "32.022297"
    },
    {
        "name": "28路",
        "station": "集庆门大街东",
        "lat": "32.022297",
        "lng": "118.761238"
    },
    {
        "name": "28路",
        "station": "长虹路",
        "lng": "118.761238",
        "lat": "32.020302"
    },
    {
        "name": "28路",
        "station": "长虹路北",
        "lat": "32.020302",
        "lng": "118.763794"
    },
    {
        "name": "28路",
        "station": "虎踞南路·水西门",
        "lng": "118.763794",
        "lat": "32.019447"
    },
    {
        "name": "28路",
        "station": "建邺路·止马营",
        "lat": "32.019447",
        "lng": "118.766357"
    },
    {
        "name": "28路",
        "station": "建邺路",
        "lng": "118.766357",
        "lat": "32.020706"
    },
    {
        "name": "28路",
        "station": "张府园",
        "lat": "32.020706",
        "lng": "118.766922"
    },
    {
        "name": "28路",
        "station": "三元巷",
        "lng": "118.766922",
        "lat": "32.024948"
    },
    {
        "name": "28路",
        "station": "新街口南",
        "lat": "32.024948",
        "lng": "118.766853"
    },
    {
        "name": "28路",
        "station": "新街口北",
        "lng": "118.766853",
        "lat": "32.028095"
    },
    {
        "name": "28路",
        "station": "中山路·珠江路北",
        "lat": "32.028095",
        "lng": "118.769806"
    },
    {
        "name": "28路",
        "station": "市口腔医院",
        "lng": "118.769806",
        "lat": "32.031662"
    },
    {
        "name": "28路",
        "station": "玄武门地铁站南",
        "lat": "32.031662",
        "lng": "118.771629"
    },
    {
        "name": "28路",
        "station": "观音里",
        "lng": "118.771629",
        "lat": "32.033726"
    },
    {
        "name": "28路",
        "station": "玄武湖隧道",
        "lat": "32.033726",
        "lng": "118.777534"
    },
    {
        "name": "28路",
        "station": "中央门立交",
        "lng": "118.777534",
        "lat": "32.031872"
    },
    {
        "name": "28路",
        "station": "中央门东",
        "lat": "32.031872",
        "lng": "118.781616"
    },
    {
        "name": "28路",
        "station": "龙蟠路·南京站西",
        "lng": "118.781616",
        "lat": "32.03035"
    },
    {
        "name": "28路",
        "station": "龙蟠路·南京站东",
        "lat": "32.03035",
        "lng": "118.784134"
    },
    {
        "name": "28路",
        "station": "新庄广场西",
        "lng": "118.784134",
        "lat": "32.032314"
    },
    {
        "name": "28路",
        "station": "新庄广场东",
        "lat": "32.032314",
        "lng": "118.784149"
    },
    {
        "name": "28路",
        "station": "玄武大道·长途东站",
        "lng": "118.784149",
        "lat": "32.036381"
    },
    {
        "name": "28路",
        "station": "樱铁村",
        "lat": "32.036381",
        "lng": "118.784126"
    },
    {
        "name": "28路",
        "station": "墨香路总站",
        "lng": "118.784126",
        "lat": "32.043827"
    },
    {
        "name": "29路",
        "station": "杨庄",
        "lng": "118.862279",
        "lat": "32.006836"
    },
    {
        "name": "29路",
        "station": "银龙花园",
        "lat": "32.006836",
        "lng": "118.857417"
    },
    {
        "name": "29路",
        "station": "银龙花园东",
        "lng": "118.857417",
        "lat": "32.006594"
    },
    {
        "name": "29路",
        "station": "西桐桥",
        "lat": "32.006594",
        "lng": "118.853793"
    },
    {
        "name": "29路",
        "station": "银龙雅苑",
        "lng": "118.853793",
        "lat": "32.00174"
    },
    {
        "name": "29路",
        "station": "湿地公园站",
        "lat": "32.00174",
        "lng": "118.849655"
    },
    {
        "name": "29路",
        "station": "秦淮科技高中",
        "lng": "118.849655",
        "lat": "31.999731"
    },
    {
        "name": "29路",
        "station": "友谊河路南",
        "lat": "31.999731",
        "lng": "118.844009"
    },
    {
        "name": "29路",
        "station": "友谊河路",
        "lng": "118.844009",
        "lat": "32.003704"
    },
    {
        "name": "29路",
        "station": "海福巷西",
        "lat": "32.003704",
        "lng": "118.841309"
    },
    {
        "name": "29路",
        "station": "工程兵学院",
        "lng": "118.841309",
        "lat": "32.006248"
    },
    {
        "name": "29路",
        "station": "天堂村",
        "lat": "32.006248",
        "lng": "118.841819"
    },
    {
        "name": "29路",
        "station": "石门坎",
        "lng": "118.841819",
        "lat": "32.008225"
    },
    {
        "name": "29路",
        "station": "石门坎西",
        "lat": "32.008225",
        "lng": "118.843633"
    },
    {
        "name": "29路",
        "station": "光华路西",
        "lng": "118.843633",
        "lat": "32.012808"
    },
    {
        "name": "29路",
        "station": "光华门",
        "lat": "32.012808",
        "lng": "118.84494"
    },
    {
        "name": "29路",
        "station": "大光路北",
        "lng": "118.84494",
        "lat": "32.017258"
    },
    {
        "name": "29路",
        "station": "解放南路",
        "lat": "32.017258",
        "lng": "118.841789"
    },
    {
        "name": "29路",
        "station": "瑞金北村",
        "lng": "118.841789",
        "lat": "32.019371"
    },
    {
        "name": "29路",
        "station": "西安门",
        "lat": "32.019371",
        "lng": "118.837561"
    },
    {
        "name": "29路",
        "station": "中山东路·逸仙桥",
        "lng": "118.837561",
        "lat": "32.018893"
    },
    {
        "name": "29路",
        "station": "总统府",
        "lat": "32.018893",
        "lng": "118.83418"
    },
    {
        "name": "29路",
        "station": "网巾市",
        "lng": "118.83418",
        "lat": "32.019188"
    },
    {
        "name": "29路",
        "station": "长江路·估衣廊",
        "lat": "32.019188",
        "lng": "118.828021"
    },
    {
        "name": "30路",
        "station": "建康路",
        "lng": "118.794193",
        "lat": "32.024661"
    },
    {
        "name": "30路",
        "station": "白下路·大中桥",
        "lat": "32.024661",
        "lng": "118.797826"
    },
    {
        "name": "30路",
        "station": "白下路",
        "lng": "118.797826",
        "lat": "32.027036"
    },
    {
        "name": "30路",
        "station": "内桥",
        "lat": "32.027036",
        "lng": "118.78969"
    },
    {
        "name": "30路",
        "station": "羊皮巷",
        "lng": "118.78969",
        "lat": "32.028669"
    },
    {
        "name": "30路",
        "station": "新街口·正洪街",
        "lat": "32.028669",
        "lng": "118.786523"
    },
    {
        "name": "30路",
        "station": "青石街",
        "lng": "118.786523",
        "lat": "32.030577"
    },
    {
        "name": "30路",
        "station": "相府营",
        "lat": "32.030577",
        "lng": "118.787148"
    },
    {
        "name": "30路",
        "station": "鱼市街",
        "lng": "118.787148",
        "lat": "32.034897"
    },
    {
        "name": "30路",
        "station": "丹凤街",
        "lat": "32.034897",
        "lng": "118.787621"
    },
    {
        "name": "30路",
        "station": "保泰街",
        "lng": "118.787621",
        "lat": "32.038662"
    },
    {
        "name": "30路",
        "station": "傅厚岗",
        "lat": "32.038662",
        "lng": "118.788406"
    },
    {
        "name": "30路",
        "station": "玄武门地铁站南",
        "lng": "118.788406",
        "lat": "32.043644"
    },
    {
        "name": "30路",
        "station": "观音里",
        "lat": "32.043644",
        "lng": "118.788811"
    },
    {
        "name": "30路",
        "station": "玄武湖隧道",
        "lng": "118.788811",
        "lat": "32.045689"
    },
    {
        "name": "30路",
        "station": "中央门南",
        "lat": "32.045689",
        "lng": "118.787283"
    },
    {
        "name": "30路",
        "station": "中央门北(2站台)",
        "lng": "118.787283",
        "lat": "32.051285"
    },
    {
        "name": "30路",
        "station": "安怀村",
        "lat": "32.051285",
        "lng": "118.787231"
    },
    {
        "name": "30路",
        "station": "安怀村东",
        "lng": "118.787231",
        "lat": "32.055213"
    },
    {
        "name": "30路",
        "station": "东井亭",
        "lat": "32.055213",
        "lng": "118.786784"
    },
    {
        "name": "30路",
        "station": "红山站",
        "lng": "118.786784",
        "lat": "32.060573"
    },
    {
        "name": "30路",
        "station": "东井村",
        "lat": "32.060573",
        "lng": "118.786298"
    },
    {
        "name": "30路",
        "station": "和燕路·迈皋桥",
        "lng": "118.786298",
        "lat": "32.063641"
    },
    {
        "name": "30路",
        "station": "南砖新村",
        "lat": "32.063641",
        "lng": "118.784141"
    },
    {
        "name": "30路",
        "station": "晓庄东",
        "lng": "118.784141",
        "lat": "32.067457"
    },
    {
        "name": "30路",
        "station": "青城路·逸文路",
        "lat": "32.067457",
        "lng": "118.78411"
    },
    {
        "name": "30路",
        "station": "大瓜园",
        "lng": "118.78411",
        "lat": "32.074918"
    },
    {
        "name": "31路",
        "station": "中山码头",
        "lng": "118.734531",
        "lat": "32.08763"
    },
    {
        "name": "31路",
        "station": "中山桥",
        "lat": "32.08763",
        "lng": "118.740291"
    },
    {
        "name": "31路",
        "station": "热河路",
        "lng": "118.740291",
        "lat": "32.087917"
    },
    {
        "name": "31路",
        "station": "盐仓桥广场西",
        "lat": "32.087917",
        "lng": "118.742448"
    },
    {
        "name": "31路",
        "station": "中山北路·萨家湾",
        "lng": "118.742448",
        "lat": "32.088937"
    },
    {
        "name": "31路",
        "station": "中山北路·三牌楼",
        "lat": "32.088937",
        "lng": "118.751302"
    },
    {
        "name": "31路",
        "station": "中山北路·虹桥",
        "lng": "118.751302",
        "lat": "32.086159"
    },
    {
        "name": "31路",
        "station": "中山北路·大方巷",
        "lat": "32.086159",
        "lng": "118.758407"
    },
    {
        "name": "31路",
        "station": "中山北路·鼓楼",
        "lng": "118.758407",
        "lat": "32.081128"
    },
    {
        "name": "31路",
        "station": "北京东路·进香河路",
        "lat": "32.081128",
        "lng": "118.763247"
    },
    {
        "name": "31路",
        "station": "太平北路·鸡鸣寺",
        "lng": "118.763247",
        "lat": "32.07694"
    },
    {
        "name": "31路",
        "station": "四牌楼",
        "lat": "32.07694",
        "lng": "118.76873"
    },
    {
        "name": "31路",
        "station": "大行宫北",
        "lng": "118.76873",
        "lat": "32.072174"
    },
    {
        "name": "31路",
        "station": "南京图书馆",
        "lat": "32.072174",
        "lng": "118.776541"
    },
    {
        "name": "31路",
        "station": "大行宫南",
        "lng": "118.776541",
        "lat": "32.065378"
    },
    {
        "name": "31路",
        "station": "杨公井",
        "lat": "32.065378",
        "lng": "118.7823"
    },
    {
        "name": "31路",
        "station": "太平南路·常府街",
        "lng": "118.7823",
        "lat": "32.060373"
    },
    {
        "name": "31路",
        "station": "太平南路·白下路",
        "lat": "32.060373",
        "lng": "118.789991"
    },
    {
        "name": "31路",
        "station": "建康路",
        "lng": "118.789991",
        "lat": "32.058025"
    },
    {
        "name": "32路",
        "station": "南京站·北广场西",
        "lng": "118.797391",
        "lat": "32.089274"
    },
    {
        "name": "32路",
        "station": "龙蟠路·南京站西",
        "lat": "32.089274",
        "lng": "118.79253"
    },
    {
        "name": "32路",
        "station": "中央门东",
        "lng": "118.79253",
        "lat": "32.087613"
    },
    {
        "name": "32路",
        "station": "中央门南",
        "lat": "32.087613",
        "lng": "118.788724"
    },
    {
        "name": "32路",
        "station": "许府巷",
        "lng": "118.788724",
        "lat": "32.089783"
    },
    {
        "name": "32路",
        "station": "新模范马路东",
        "lat": "32.089783",
        "lng": "118.784023"
    },
    {
        "name": "32路",
        "station": "新模范马路·青石村",
        "lng": "118.784023",
        "lat": "32.088082"
    },
    {
        "name": "32路",
        "station": "司背后",
        "lat": "32.088082",
        "lng": "118.784023"
    },
    {
        "name": "32路",
        "station": "和会街",
        "lng": "118.784023",
        "lat": "32.084015"
    },
    {
        "name": "32路",
        "station": "三牌楼大街北",
        "lat": "32.084015",
        "lng": "118.782204"
    },
    {
        "name": "32路",
        "station": "福建路·萨家湾",
        "lng": "118.782204",
        "lat": "32.077648"
    },
    {
        "name": "32路",
        "station": "中山北路·萨家湾",
        "lat": "32.077648",
        "lng": "118.777665"
    },
    {
        "name": "32路",
        "station": "南医大二附院东院",
        "lng": "118.777665",
        "lat": "32.077539"
    },
    {
        "name": "32路",
        "station": "盐仓桥广场西",
        "lat": "32.077539",
        "lng": "118.771723"
    },
    {
        "name": "32路",
        "station": "热河南路",
        "lng": "118.771723",
        "lat": "32.077474"
    },
    {
        "name": "32路",
        "station": "南医大二附院",
        "lat": "32.077474",
        "lng": "118.766411"
    },
    {
        "name": "32路",
        "station": "农贸中心",
        "lng": "118.766411",
        "lat": "32.079049"
    },
    {
        "name": "32路",
        "station": "江东北路·三汊河",
        "lat": "32.079049",
        "lng": "118.76365"
    },